[{
  "_id": 2,
  "OBJECTID": 2,
  "GEO_ID": 524780,
  "NAME": "A R S ARMENIAN PRIVATE SCHOOL",
  "SOURCE_ADDRESS": "50 HALLCROWN PL",
  "SCHOOL_TYPE_DESC": "Private",
  "ADDRESS_POINT_ID": 524780,
  "LINEAR_NAME_FULL": "Hallcrown Pl",
  "ADDRESS_FULL": "50 Hallcrown Pl",
  "POSTAL_CODE": "M2J 1P7",
  "MUNICIPALITY": "North York",
  "CITY": "Toronto",
  "GENERAL_USE_CODE": 104008,
  "LONG": -79.323156147744,
  "LAT": 43.770053062482
},
{
  "_id": 3,
  "OBJECTID": 3,
  "GEO_ID": 20258267,
  "NAME": "A Y J GLOBAL ACADEMY",
  "SOURCE_ADDRESS": "4 LANSING SQ",
  "SCHOOL_TYPE_DESC": "Private",
  "ADDRESS_POINT_ID": 20258267,
  "LINEAR_NAME_FULL": "Lansing Sq",
  "ADDRESS_FULL": "4 Lansing Sq",
  "POSTAL_CODE": "M2J 5A2",
  "MUNICIPALITY": "North York",
  "CITY": "Toronto",
  "GENERAL_USE_CODE": 104008,
  "LONG": -79.3252164120635,
  "LAT": 43.774082570705
},
{
  "_id": 1,
  "OBJECTID": 1,
  "GEO_ID": 330677,
  "NAME": "A PLUS ACADEMY OF ADVANCEMENT",
  "SOURCE_ADDRESS": "2425 EGLINTON AVE E",
  "SCHOOL_TYPE_DESC": "Private",
  "ADDRESS_POINT_ID": 330677,
  "LINEAR_NAME_FULL": "Eglinton Ave E",
  "ADDRESS_FULL": "2425 Eglinton Ave E",
  "POSTAL_CODE": "M1K 5G8",
  "MUNICIPALITY": "Scarborough",
  "CITY": "Toronto",
  "GENERAL_USE_CODE": 104008,
  "LONG": -79.267103936897,
  "LAT": 43.7320819460129
},
{
  "_id": 5,
  "OBJECTID": 5,
  "GEO_ID": 13967401,
  "NAME": "ABACUS MONTESSORI LEARNING CENTRE",
  "SOURCE_ADDRESS": "4 CREDIT UNION DR",
  "SCHOOL_TYPE_DESC": "Private",
  "ADDRESS_POINT_ID": 13967401,
  "LINEAR_NAME_FULL": "Credit Union Dr",
  "ADDRESS_FULL": "4 Credit Union Dr",
  "POSTAL_CODE": "M4A 2N8",
  "MUNICIPALITY": "North York",
  "CITY": "Toronto",
  "GENERAL_USE_CODE": 106007,
  "LONG": -79.3190099774403,
  "LAT": 43.725432232812
},
{
  "_id": 6,
  "OBJECTID": 6,
  "GEO_ID": 4605052,
  "NAME": "ABU BAKR EDUCATION ACADEMY",
  "SOURCE_ADDRESS": "2665 LAWRENCE AVE E",
  "SCHOOL_TYPE_DESC": "Private",
  "ADDRESS_POINT_ID": 4605052,
  "LINEAR_NAME_FULL": "Lawrence Ave E",
  "ADDRESS_FULL": "2665 Lawrence Ave E",
  "POSTAL_CODE": "M1P 2S2",
  "MUNICIPALITY": "Scarborough",
  "CITY": "Toronto",
  "GENERAL_USE_CODE": 112001,
  "LONG": -79.2621633018006,
  "LAT": 43.7514534548585
},
{
  "_id": 8,
  "OBJECTID": 8,
  "GEO_ID": 322971,
  "NAME": "ACADEMIE ALEXANDRE DUMAS",
  "SOURCE_ADDRESS": "255 CORONATION DR",
  "SCHOOL_TYPE_DESC": "French Public",
  "ADDRESS_POINT_ID": 322971,
  "LINEAR_NAME_FULL": "Coronation Dr",
  "ADDRESS_FULL": "255 Coronation Dr",
  "POSTAL_CODE": "M1E 2J3",
  "MUNICIPALITY": "Scarborough",
  "CITY": "Toronto",
  "GENERAL_USE_CODE": 102001,
  "LONG": -79.1797652166975,
  "LAT": 43.7624188078436
},
{
  "_id": 7,
  "OBJECTID": 7,
  "GEO_ID": 8087266,
  "NAME": "ACACIA INTERNATIONAL HIGH SCHOOL",
  "SOURCE_ADDRESS": "5415 DUNDAS ST W",
  "SCHOOL_TYPE_DESC": "Private",
  "ADDRESS_POINT_ID": 8087266,
  "LINEAR_NAME_FULL": "Dundas St W",
  "ADDRESS_FULL": "5415 Dundas St W",
  "POSTAL_CODE": "M9B 1B5",
  "MUNICIPALITY": "Etobicoke",
  "CITY": "Toronto",
  "GENERAL_USE_CODE": 115001,
  "LONG": -79.5412901930194,
  "LAT": 43.6339646127929
},
{
  "_id": 9,
  "OBJECTID": 9,
  "GEO_ID": 575619,
  "NAME": "ACADEMY OF EXCELLENCE",
  "SOURCE_ADDRESS": "128 WILLOWDALE AVE",
  "SCHOOL_TYPE_DESC": "Private",
  "ADDRESS_POINT_ID": 575619,
  "LINEAR_NAME_FULL": "Willowdale Ave",
  "ADDRESS_FULL": "128 Willowdale Ave",
  "POSTAL_CODE": "M2N 4Y2",
  "MUNICIPALITY": "North York",
  "CITY": "Toronto",
  "GENERAL_USE_CODE": 112001,
  "LONG": -79.4005055525118,
  "LAT": 43.7651862818454
},
{
  "_id": 10,
  "OBJECTID": 10,
  "GEO_ID": 30029356,
  "NAME": "ACADEMY OF MATH AND ENGLISH",
  "SOURCE_ADDRESS": "5101 DUNDAS ST W",
  "SCHOOL_TYPE_DESC": "Private",
  "ADDRESS_POINT_ID": 30029356,
  "LINEAR_NAME_FULL": "Dundas St W",
  "ADDRESS_FULL": "5101 Dundas St W",
  "POSTAL_CODE": "M9A 5G8",
  "MUNICIPALITY": "Etobicoke",
  "CITY": "Toronto",
  "GENERAL_USE_CODE": 112001,
  "LONG": -79.5319897329647,
  "LAT": 43.644824255422
},
{
  "_id": 11,
  "OBJECTID": 11,
  "GEO_ID": 9311790,
  "NAME": "ACADEMY OF NEW ECHO EDUCATION",
  "SOURCE_ADDRESS": "1041 MCNICOLL AVE",
  "SCHOOL_TYPE_DESC": "Private",
  "ADDRESS_POINT_ID": 9311790,
  "LINEAR_NAME_FULL": "McNicoll Ave",
  "ADDRESS_FULL": "1041 McNicoll Ave",
  "POSTAL_CODE": "M1W 3W6",
  "MUNICIPALITY": "Scarborough",
  "CITY": "Toronto",
  "GENERAL_USE_CODE": 115001,
  "LONG": -79.3344738933022,
  "LAT": 43.8041514841863
},
{
  "_id": 12,
  "OBJECTID": 12,
  "GEO_ID": 508042,
  "NAME": "ACE ACUMEN HIGH SCHOOL",
  "SOURCE_ADDRESS": "1440 DON MILLS RD",
  "SCHOOL_TYPE_DESC": "Private",
  "ADDRESS_POINT_ID": 508042,
  "LINEAR_NAME_FULL": "Don Mills Rd",
  "ADDRESS_FULL": "1440 Don Mills Rd",
  "POSTAL_CODE": "M3B 3M1",
  "MUNICIPALITY": "North York",
  "CITY": "Toronto",
  "GENERAL_USE_CODE": 104008,
  "LONG": -79.3475085093383,
  "LAT": 43.750732060267
},
{
  "_id": 13,
  "OBJECTID": 13,
  "GEO_ID": 10476656,
  "NAME": "ADAM BECK JUNIOR PUBLIC SCHOOL",
  "SOURCE_ADDRESS": "400 SCARBOROUGH RD",
  "SCHOOL_TYPE_DESC": "English Public",
  "ADDRESS_POINT_ID": 10476656,
  "LINEAR_NAME_FULL": "Scarborough Rd",
  "ADDRESS_FULL": "400 Scarborough Rd",
  "POSTAL_CODE": "M4E 3M8",
  "MUNICIPALITY": "former Toronto",
  "CITY": "Toronto",
  "GENERAL_USE_CODE": 102001,
  "LONG": -79.2884878925608,
  "LAT": 43.6831518038006
},
{
  "_id": 14,
  "OBJECTID": 14,
  "GEO_ID": 5336735,
  "NAME": "ADELFIHA'S CHRISTIAN ACADEMY",
  "SOURCE_ADDRESS": "4340 DUFFERIN ST",
  "SCHOOL_TYPE_DESC": "Private",
  "ADDRESS_POINT_ID": 5336735,
  "LINEAR_NAME_FULL": "Dufferin St",
  "ADDRESS_FULL": "4340 Dufferin St",
  "POSTAL_CODE": "M3H 5R9",
  "MUNICIPALITY": "North York",
  "CITY": "Toronto",
  "GENERAL_USE_CODE": 109001,
  "LONG": -79.4664451058379,
  "LAT": 43.7626893702758
},
{
  "_id": 15,
  "OBJECTID": 15,
  "GEO_ID": 10133016,
  "NAME": "AFRICENTRIC ALTERNATIVE SCHOOL",
  "SOURCE_ADDRESS": "1430 SHEPPARD AVE W",
  "SCHOOL_TYPE_DESC": "English Public",
  "ADDRESS_POINT_ID": 10133016,
  "LINEAR_NAME_FULL": "Sheppard Ave W",
  "ADDRESS_FULL": "1430 Sheppard Ave W",
  "POSTAL_CODE": "M3M 2W9",
  "MUNICIPALITY": "North York",
  "CITY": "Toronto",
  "GENERAL_USE_CODE": 102001,
  "LONG": -79.4882606578029,
  "LAT": 43.7454243556118
},
{
  "_id": 16,
  "OBJECTID": 16,
  "GEO_ID": 316926,
  "NAME": "AFZAL ISLAMIC MONTESSORI & ACADEMY",
  "SOURCE_ADDRESS": "33 CASEBRIDGE CRT",
  "SCHOOL_TYPE_DESC": "Private",
  "ADDRESS_POINT_ID": 316926,
  "LINEAR_NAME_FULL": "Casebridge Crt",
  "ADDRESS_FULL": "33 Casebridge Crt",
  "POSTAL_CODE": "M1B 3J5",
  "MUNICIPALITY": "Scarborough",
  "CITY": "Toronto",
  "GENERAL_USE_CODE": 113001,
  "LONG": -79.1995461417982,
  "LAT": 43.8090844901631
},
{
  "_id": 4,
  "OBJECTID": 4,
  "GEO_ID": 517961,
  "NAME": "A Y JACKSON SECONDARY SCHOOL",
  "SOURCE_ADDRESS": "50 FRANCINE DR",
  "SCHOOL_TYPE_DESC": "English Public",
  "ADDRESS_POINT_ID": 517961,
  "LINEAR_NAME_FULL": "Francine Dr",
  "ADDRESS_FULL": "50 Francine Dr",
  "POSTAL_CODE": "M2H 2G6",
  "MUNICIPALITY": "North York",
  "CITY": "Toronto",
  "GENERAL_USE_CODE": 102002,
  "LONG": -79.3665552934095,
  "LAT": 43.8052613014219
},
{
  "_id": 18,
  "OBJECTID": 18,
  "GEO_ID": 382096,
  "NAME": "AGINCOURT INTERNATIONAL ACADEMY",
  "SOURCE_ADDRESS": "1001 SANDHURST CRCL",
  "SCHOOL_TYPE_DESC": "Private",
  "ADDRESS_POINT_ID": 382096,
  "LINEAR_NAME_FULL": "Sandhurst Crcl",
  "ADDRESS_FULL": "1001 Sandhurst Crcl",
  "POSTAL_CODE": "M1V 1Z6",
  "MUNICIPALITY": "Scarborough",
  "CITY": "Toronto",
  "GENERAL_USE_CODE": 107005,
  "LONG": -79.2636771200357,
  "LAT": 43.8092576481457
},
{
  "_id": 17,
  "OBJECTID": 17,
  "GEO_ID": 3211411,
  "NAME": "AGINCOURT COLLEGIATE INSTITUTE",
  "SOURCE_ADDRESS": "2621 MIDLAND AVE",
  "SCHOOL_TYPE_DESC": "English Public",
  "ADDRESS_POINT_ID": 3211411,
  "LINEAR_NAME_FULL": "Midland Ave",
  "ADDRESS_FULL": "2621 Midland Ave",
  "POSTAL_CODE": "M1S 1R6",
  "MUNICIPALITY": "Scarborough",
  "CITY": "Toronto",
  "GENERAL_USE_CODE": 102002,
  "LONG": -79.2789099586918,
  "LAT": 43.7888738444071
},
{
  "_id": 19,
  "OBJECTID": 19,
  "GEO_ID": 356507,
  "NAME": "AGINCOURT JR PUBLIC SCHOOL",
  "SOURCE_ADDRESS": "29 LOCKIE AVE",
  "SCHOOL_TYPE_DESC": "English Public",
  "ADDRESS_POINT_ID": 356507,
  "LINEAR_NAME_FULL": "Lockie Ave",
  "ADDRESS_FULL": "29 Lockie Ave",
  "POSTAL_CODE": "M1S 1N3",
  "MUNICIPALITY": "Scarborough",
  "CITY": "Toronto",
  "GENERAL_USE_CODE": 102001,
  "LONG": -79.2811623057309,
  "LAT": 43.7882592158345
},
{
  "_id": 21,
  "OBJECTID": 21,
  "GEO_ID": 30022742,
  "NAME": "AGNES MCPHAIL PUBLIC SCHOOL",
  "SOURCE_ADDRESS": "112 GOLDHAWK TRL",
  "SCHOOL_TYPE_DESC": "English Public",
  "ADDRESS_POINT_ID": 30022742,
  "LINEAR_NAME_FULL": "Goldhawk Trl",
  "ADDRESS_FULL": "112 Goldhawk Trl",
  "POSTAL_CODE": "M1V 1W5",
  "MUNICIPALITY": "Scarborough",
  "CITY": "Toronto",
  "GENERAL_USE_CODE": 102001,
  "LONG": -79.2785533935458,
  "LAT": 43.819268975669
},
{
  "_id": 20,
  "OBJECTID": 20,
  "GEO_ID": 5479010,
  "NAME": "AGINCOURT MONTESSORI",
  "SOURCE_ADDRESS": "2575 MIDLAND AVE",
  "SCHOOL_TYPE_DESC": "Private",
  "ADDRESS_POINT_ID": 5479010,
  "LINEAR_NAME_FULL": "Midland Ave",
  "ADDRESS_FULL": "2575 Midland Ave",
  "POSTAL_CODE": "M1S 1R3",
  "MUNICIPALITY": "Scarborough",
  "CITY": "Toronto",
  "GENERAL_USE_CODE": 115001,
  "LONG": -79.2787041824473,
  "LAT": 43.7864432730251
},
{
  "_id": 24,
  "OBJECTID": 24,
  "GEO_ID": 376316,
  "NAME": "AL HAADI SCHOOL",
  "SOURCE_ADDRESS": "690 PROGRESS AVE",
  "SCHOOL_TYPE_DESC": "Private",
  "ADDRESS_POINT_ID": 376316,
  "LINEAR_NAME_FULL": "Progress Ave",
  "ADDRESS_FULL": "690 Progress Ave",
  "POSTAL_CODE": "M1H 3A6",
  "MUNICIPALITY": "Scarborough",
  "CITY": "Toronto",
  "GENERAL_USE_CODE": 113001,
  "LONG": -79.2484031068229,
  "LAT": 43.777941595248
},
{
  "_id": 22,
  "OBJECTID": 22,
  "GEO_ID": 10785753,
  "NAME": "AIM ACADEMY ISLAMIC SCHOOL",
  "SOURCE_ADDRESS": "56 BOUSTEAD AVE",
  "SCHOOL_TYPE_DESC": "Private",
  "ADDRESS_POINT_ID": 10785753,
  "LINEAR_NAME_FULL": "Boustead Ave",
  "ADDRESS_FULL": "56 Boustead Ave",
  "POSTAL_CODE": "M6R 1Y9",
  "MUNICIPALITY": "former Toronto",
  "CITY": "Toronto",
  "GENERAL_USE_CODE": 109001,
  "LONG": -79.4544695238304,
  "LAT": 43.6533088679897
},
{
  "_id": 31,
  "OBJECTID": 31,
  "GEO_ID": 10133520,
  "NAME": "ALBION HEIGHTS JUNIOR MIDDLE SCHOOL",
  "SOURCE_ADDRESS": "45 LYNMONT RD",
  "SCHOOL_TYPE_DESC": "English Public",
  "ADDRESS_POINT_ID": 10133520,
  "LINEAR_NAME_FULL": "Lynmont Rd",
  "ADDRESS_FULL": "45 Lynmont Rd",
  "POSTAL_CODE": "M9V 3W9",
  "MUNICIPALITY": "Etobicoke",
  "CITY": "Toronto",
  "GENERAL_USE_CODE": 102001,
  "LONG": -79.5943154958931,
  "LAT": 43.7313882639787
},
{
  "_id": 32,
  "OBJECTID": 32,
  "GEO_ID": 982437,
  "NAME": "ALBION LINC",
  "SOURCE_ADDRESS": "1530 ALBION RD",
  "SCHOOL_TYPE_DESC": "English Public",
  "ADDRESS_POINT_ID": 982437,
  "LINEAR_NAME_FULL": "Albion Rd",
  "ADDRESS_FULL": "1530 Albion Rd",
  "POSTAL_CODE": "M9V 1B4",
  "MUNICIPALITY": "Etobicoke",
  "CITY": "Toronto",
  "GENERAL_USE_CODE": 107004,
  "LONG": -79.5846021379965,
  "LAT": 43.7417625405401
},
{
  "_id": 23,
  "OBJECTID": 23,
  "GEO_ID": 2119588,
  "NAME": "AL AZHAR ISLAMIC SCHOOL",
  "SOURCE_ADDRESS": "100 MCLEVIN AVE",
  "SCHOOL_TYPE_DESC": "Private",
  "ADDRESS_POINT_ID": 2119588,
  "LINEAR_NAME_FULL": "McLevin Ave",
  "ADDRESS_FULL": "100 McLevin Ave",
  "POSTAL_CODE": "M1B 5K1",
  "MUNICIPALITY": "Scarborough",
  "CITY": "Toronto",
  "GENERAL_USE_CODE": 113001,
  "LONG": -79.2365750799133,
  "LAT": 43.8015539474172
},
{
  "_id": 34,
  "OBJECTID": 34,
  "GEO_ID": 10527839,
  "NAME": "ALEXANDER MUIR GLADSTONE AVENUE JUNIOR & SENIOR PUBLIC SCHOOL",
  "SOURCE_ADDRESS": "108 GLADSTONE AVE",
  "SCHOOL_TYPE_DESC": "English Public",
  "ADDRESS_POINT_ID": 10527839,
  "LINEAR_NAME_FULL": "Gladstone Ave",
  "ADDRESS_FULL": "108 Gladstone Ave",
  "POSTAL_CODE": "M6J 3L2",
  "MUNICIPALITY": "former Toronto",
  "CITY": "Toronto",
  "GENERAL_USE_CODE": 102001,
  "LONG": -79.4288472631571,
  "LAT": 43.6460212506421
},
{
  "_id": 35,
  "OBJECTID": 35,
  "GEO_ID": 333733,
  "NAME": "ALEXANDER STIRLING PUBLIC SCHOOL",
  "SOURCE_ADDRESS": "70 FAWCETT TRL",
  "SCHOOL_TYPE_DESC": "English Public",
  "ADDRESS_POINT_ID": 333733,
  "LINEAR_NAME_FULL": "Fawcett Trl",
  "ADDRESS_FULL": "70 Fawcett Trl",
  "POSTAL_CODE": "M1B 3A9",
  "MUNICIPALITY": "Scarborough",
  "CITY": "Toronto",
  "GENERAL_USE_CODE": 102001,
  "LONG": -79.2076059405385,
  "LAT": 43.8116563251017
},
{
  "_id": 36,
  "OBJECTID": 36,
  "GEO_ID": 300827,
  "NAME": "ALEXMUIR JUNIOR PUBLIC SCHOOL",
  "SOURCE_ADDRESS": "95 ALEXMUIR BLVD",
  "SCHOOL_TYPE_DESC": "English Public",
  "ADDRESS_POINT_ID": 300827,
  "LINEAR_NAME_FULL": "Alexmuir Blvd",
  "ADDRESS_FULL": "95 Alexmuir Blvd",
  "POSTAL_CODE": "M1V 1H6",
  "MUNICIPALITY": "Scarborough",
  "CITY": "Toronto",
  "GENERAL_USE_CODE": 102001,
  "LONG": -79.2856134903058,
  "LAT": 43.809109322683
},
{
  "_id": 27,
  "OBJECTID": 27,
  "GEO_ID": 508045,
  "NAME": "ALATHENA INTERNATIONAL ACADEMY SECONDARY SCHOOL - NORTH YORK",
  "SOURCE_ADDRESS": "1470 DON MILLS RD",
  "SCHOOL_TYPE_DESC": "Private",
  "ADDRESS_POINT_ID": 508045,
  "LINEAR_NAME_FULL": "Don Mills Rd",
  "ADDRESS_FULL": "1470 Don Mills Rd",
  "POSTAL_CODE": "M3B 2X9",
  "MUNICIPALITY": "North York",
  "CITY": "Toronto",
  "GENERAL_USE_CODE": 104008,
  "LONG": -79.3477301743604,
  "LAT": 43.7532181809796
},
{
  "_id": 25,
  "OBJECTID": 25,
  "GEO_ID": 1017314,
  "NAME": "AL IKHLAAS FOUNDATION SCHOOL",
  "SOURCE_ADDRESS": "1245 MARTIN GROVE RD",
  "SCHOOL_TYPE_DESC": "Private",
  "ADDRESS_POINT_ID": 1017314,
  "LINEAR_NAME_FULL": "Martin Grove Rd",
  "ADDRESS_FULL": "1245 Martin Grove Rd",
  "POSTAL_CODE": "M9W 4X2",
  "MUNICIPALITY": "Etobicoke",
  "CITY": "Toronto",
  "GENERAL_USE_CODE": 113001,
  "LONG": -79.5785365341563,
  "LAT": 43.7109597265285
},
{
  "_id": 39,
  "OBJECTID": 39,
  "GEO_ID": 1029710,
  "NAME": "ALL SAINTS CATHOLIC ELEMENTARY SCHOOL",
  "SOURCE_ADDRESS": "1435 ROYAL YORK RD",
  "SCHOOL_TYPE_DESC": "English Separate",
  "ADDRESS_POINT_ID": 1029710,
  "LINEAR_NAME_FULL": "Royal York Rd",
  "ADDRESS_FULL": "1435 Royal York Rd",
  "POSTAL_CODE": "M9P 3A7",
  "MUNICIPALITY": "Etobicoke",
  "CITY": "Toronto",
  "GENERAL_USE_CODE": 102003,
  "LONG": -79.5270811217707,
  "LAT": 43.6852216298202
},
{
  "_id": 40,
  "OBJECTID": 40,
  "GEO_ID": 873148,
  "NAME": "ALLENBY JUNIOR PUBLIC SCHOOL",
  "SOURCE_ADDRESS": "391 ST CLEMENTS AVE",
  "SCHOOL_TYPE_DESC": "English Public",
  "ADDRESS_POINT_ID": 873148,
  "LINEAR_NAME_FULL": "St Clements Ave",
  "ADDRESS_FULL": "391 St Clements Ave",
  "POSTAL_CODE": "M5N 1M2",
  "MUNICIPALITY": "former Toronto",
  "CITY": "Toronto",
  "GENERAL_USE_CODE": 102001,
  "LONG": -79.4127877318278,
  "LAT": 43.7094356428595
},
{
  "_id": 41,
  "OBJECTID": 41,
  "GEO_ID": 4368161,
  "NAME": "AL-MADRASAH AL-INAMYYAH",
  "SOURCE_ADDRESS": "3665 LAWRENCE AVE E",
  "SCHOOL_TYPE_DESC": "Private",
  "ADDRESS_POINT_ID": 4368161,
  "LINEAR_NAME_FULL": "Lawrence Ave E",
  "ADDRESS_FULL": "3665 Lawrence Ave E",
  "POSTAL_CODE": "M1G 1P7",
  "MUNICIPALITY": "Scarborough",
  "CITY": "Toronto",
  "GENERAL_USE_CODE": 112001,
  "LONG": -79.2204196021519,
  "LAT": 43.7603212832081
},
{
  "_id": 42,
  "OBJECTID": 42,
  "GEO_ID": 3948771,
  "NAME": "ALPHA ALTERNATIVE JUNIOR SCHOOL",
  "SOURCE_ADDRESS": "20 BRANT ST",
  "SCHOOL_TYPE_DESC": "English Public",
  "ADDRESS_POINT_ID": 3948771,
  "LINEAR_NAME_FULL": "Brant St",
  "ADDRESS_FULL": "20 Brant St",
  "POSTAL_CODE": "M5V 2M1",
  "MUNICIPALITY": "former Toronto",
  "CITY": "Toronto",
  "GENERAL_USE_CODE": 102001,
  "LONG": -79.3982225847432,
  "LAT": 43.6457220331711
},
{
  "_id": 43,
  "OBJECTID": 43,
  "GEO_ID": 6710176,
  "NAME": "ALPHA II ALTERNATIVE SCHOOL",
  "SOURCE_ADDRESS": "1141 BLOOR ST W",
  "SCHOOL_TYPE_DESC": "English Public",
  "ADDRESS_POINT_ID": 6710176,
  "LINEAR_NAME_FULL": "Bloor St W",
  "ADDRESS_FULL": "1141 Bloor St W",
  "POSTAL_CODE": "M6H 1M9",
  "MUNICIPALITY": "former Toronto",
  "CITY": "Toronto",
  "GENERAL_USE_CODE": 102002,
  "LONG": -79.4367968963581,
  "LAT": 43.65924610796
},
{
  "_id": 26,
  "OBJECTID": 26,
  "GEO_ID": 385458,
  "NAME": "ALATHENA INTERNATIONAL ACADEMY SECONDARY SCHOOL - BRIMLEY",
  "SOURCE_ADDRESS": "4386 SHEPPARD AVE E",
  "SCHOOL_TYPE_DESC": "Private",
  "ADDRESS_POINT_ID": 385458,
  "LINEAR_NAME_FULL": "Sheppard Ave E",
  "ADDRESS_FULL": "4386 Sheppard Ave E",
  "POSTAL_CODE": "M1S 1T8",
  "MUNICIPALITY": "Scarborough",
  "CITY": "Toronto",
  "GENERAL_USE_CODE": 107005,
  "LONG": -79.270651634897,
  "LAT": 43.7874691720053
},
{
  "_id": 45,
  "OBJECTID": 45,
  "GEO_ID": 11512110,
  "NAME": "AL-QASIM ACADEMY",
  "SOURCE_ADDRESS": "3482 LAWRENCE AVE E",
  "SCHOOL_TYPE_DESC": "Private",
  "ADDRESS_POINT_ID": 11512110,
  "LINEAR_NAME_FULL": "Lawrence Ave E",
  "ADDRESS_FULL": "3482 Lawrence Ave E",
  "POSTAL_CODE": "M1H 3E5",
  "MUNICIPALITY": "Scarborough",
  "CITY": "Toronto",
  "GENERAL_USE_CODE": 107005,
  "LONG": -79.2270980416162,
  "LAT": 43.7601291638765
},
{
  "_id": 46,
  "OBJECTID": 46,
  "GEO_ID": 489054,
  "NAME": "AL-RASSOOL ISLAMIC SCHOOL",
  "SOURCE_ADDRESS": "120 BERMONDSEY RD",
  "SCHOOL_TYPE_DESC": "Private",
  "ADDRESS_POINT_ID": 489054,
  "LINEAR_NAME_FULL": "Bermondsey Rd",
  "ADDRESS_FULL": "120 Bermondsey Rd",
  "POSTAL_CODE": "M4A 1X5",
  "MUNICIPALITY": "North York",
  "CITY": "Toronto",
  "GENERAL_USE_CODE": 113001,
  "LONG": -79.314609135376,
  "LAT": 43.7177128215758
},
{
  "_id": 29,
  "OBJECTID": 29,
  "GEO_ID": 9655748,
  "NAME": "ALAZHAR ACADEMY OF CANADA",
  "SOURCE_ADDRESS": "2074 KIPLING AVE",
  "SCHOOL_TYPE_DESC": "Private",
  "ADDRESS_POINT_ID": 9655748,
  "LINEAR_NAME_FULL": "Kipling Ave",
  "ADDRESS_FULL": "2074 Kipling Ave",
  "POSTAL_CODE": "M9W 4J9",
  "MUNICIPALITY": "Etobicoke",
  "CITY": "Toronto",
  "GENERAL_USE_CODE": 115001,
  "LONG": -79.5692116239686,
  "LAT": 43.7148769185254
},
{
  "_id": 47,
  "OBJECTID": 47,
  "GEO_ID": 312808,
  "NAME": "ALTERNATIVE SCARBOROUGH EDUCATION ONE",
  "SOURCE_ADDRESS": "60 BRIMORTON DR",
  "SCHOOL_TYPE_DESC": "English Public",
  "ADDRESS_POINT_ID": 312808,
  "LINEAR_NAME_FULL": "Brimorton Dr",
  "ADDRESS_FULL": "60 Brimorton Dr",
  "POSTAL_CODE": "M1P 3Z1",
  "MUNICIPALITY": "Scarborough",
  "CITY": "Toronto",
  "GENERAL_USE_CODE": 102001,
  "LONG": -79.2547962816571,
  "LAT": 43.766645247168
},
{
  "_id": 48,
  "OBJECTID": 48,
  "GEO_ID": 30033029,
  "NAME": "ALVIN CURLING PUBLIC SCHOOL",
  "SOURCE_ADDRESS": "50 UPPER ROUGE TRL",
  "SCHOOL_TYPE_DESC": "English Public",
  "ADDRESS_POINT_ID": 30033029,
  "LINEAR_NAME_FULL": "Upper Rouge Trl",
  "ADDRESS_FULL": "50 Upper Rouge Trl",
  "POSTAL_CODE": "M1B 6K4",
  "MUNICIPALITY": "Scarborough",
  "CITY": "Toronto",
  "GENERAL_USE_CODE": 102002,
  "LONG": -79.1902392505261,
  "LAT": 43.8084816562815
},
{
  "_id": 49,
  "OBJECTID": 49,
  "GEO_ID": 9187246,
  "NAME": "AMAIRAH PRIVATE SCHOOL",
  "SOURCE_ADDRESS": "1625 ALBION RD",
  "SCHOOL_TYPE_DESC": "Private",
  "ADDRESS_POINT_ID": 9187246,
  "LINEAR_NAME_FULL": "Albion Rd",
  "ADDRESS_FULL": "1625 Albion Rd",
  "POSTAL_CODE": "M9V 5H8",
  "MUNICIPALITY": "Etobicoke",
  "CITY": "Toronto",
  "GENERAL_USE_CODE": 115001,
  "LONG": -79.5945953168473,
  "LAT": 43.7417121222243
},
{
  "_id": 50,
  "OBJECTID": 50,
  "GEO_ID": 20037304,
  "NAME": "AMANAH ISLAMIC ACADEMY",
  "SOURCE_ADDRESS": "1160 BIRCHMOUNT RD",
  "SCHOOL_TYPE_DESC": "Private",
  "ADDRESS_POINT_ID": 20037304,
  "LINEAR_NAME_FULL": "Birchmount Rd",
  "ADDRESS_FULL": "1160 Birchmount Rd",
  "POSTAL_CODE": "M1P 2B8",
  "MUNICIPALITY": "Scarborough",
  "CITY": "Toronto",
  "GENERAL_USE_CODE": 113001,
  "LONG": -79.2838287540102,
  "LAT": 43.7411259867154
},
{
  "_id": 33,
  "OBJECTID": 33,
  "GEO_ID": 11125044,
  "NAME": "ALBORZ EDUCATION CENTRE SECONDARY SCHOOL",
  "SOURCE_ADDRESS": "20 TANGREEN CRT",
  "SCHOOL_TYPE_DESC": "Private",
  "ADDRESS_POINT_ID": 11125044,
  "LINEAR_NAME_FULL": "Tangreen Crt",
  "ADDRESS_FULL": "20 Tangreen Crt",
  "POSTAL_CODE": "M2M 3Y9",
  "MUNICIPALITY": "North York",
  "CITY": "Toronto",
  "GENERAL_USE_CODE": 115001,
  "LONG": -79.4261936575198,
  "LAT": 43.7954965800332
},
{
  "_id": 51,
  "OBJECTID": 51,
  "GEO_ID": 5145165,
  "NAME": "AMBERSON COLLEGE HIGH SCHOOL",
  "SOURCE_ADDRESS": "3470 PHARMACY AVE",
  "SCHOOL_TYPE_DESC": "Private",
  "ADDRESS_POINT_ID": 5145165,
  "LINEAR_NAME_FULL": "Pharmacy Ave",
  "ADDRESS_FULL": "3470 Pharmacy Ave",
  "POSTAL_CODE": "M1W 2S7",
  "MUNICIPALITY": "Scarborough",
  "CITY": "Toronto",
  "GENERAL_USE_CODE": 113001,
  "LONG": -79.3340562370886,
  "LAT": 43.8089116210937
},
{
  "_id": 28,
  "OBJECTID": 28,
  "GEO_ID": 9311804,
  "NAME": "ALATHENA INTERNATIONAL ACADEMY SECONDARY SCHOOL - SCARBOROUGH",
  "SOURCE_ADDRESS": "1065 MCNICOLL AVE",
  "SCHOOL_TYPE_DESC": "Private",
  "ADDRESS_POINT_ID": 9311804,
  "LINEAR_NAME_FULL": "McNicoll Ave",
  "ADDRESS_FULL": "1065 McNicoll Ave",
  "POSTAL_CODE": "M1W 3W6",
  "MUNICIPALITY": "Scarborough",
  "CITY": "Toronto",
  "GENERAL_USE_CODE": 115001,
  "LONG": -79.3326615935038,
  "LAT": 43.8036813180512
},
{
  "_id": 30,
  "OBJECTID": 30,
  "GEO_ID": 7531001,
  "NAME": "ALBERT CAMPBELL COLLEGIATE INSTITUTE",
  "SOURCE_ADDRESS": "1550 SANDHURST CRCL",
  "SCHOOL_TYPE_DESC": "English Public",
  "ADDRESS_POINT_ID": 7531001,
  "LINEAR_NAME_FULL": "Sandhurst Crcl",
  "ADDRESS_FULL": "1550 Sandhurst Crcl",
  "POSTAL_CODE": "M1V 1S6",
  "MUNICIPALITY": "Scarborough",
  "CITY": "Toronto",
  "GENERAL_USE_CODE": 102002,
  "LONG": -79.272424472942,
  "LAT": 43.8092625383141
},
{
  "_id": 38,
  "OBJECTID": 38,
  "GEO_ID": 9345080,
  "NAME": "ALIVE CHRISTIAN ACADEMY INTERNATIONAL SCHOOL",
  "SOURCE_ADDRESS": "720 PROGRESS AVE",
  "SCHOOL_TYPE_DESC": "Private",
  "ADDRESS_POINT_ID": 9345080,
  "LINEAR_NAME_FULL": "Progress Ave",
  "ADDRESS_FULL": "720 Progress Ave",
  "POSTAL_CODE": "M1H 2X3",
  "MUNICIPALITY": "Scarborough",
  "CITY": "Toronto",
  "GENERAL_USE_CODE": 115001,
  "LONG": -79.2464970220292,
  "LAT": 43.7791840973881
},
{
  "_id": 52,
  "OBJECTID": 52,
  "GEO_ID": 10035747,
  "NAME": "AMESBURY MIDDLE SCHOOL",
  "SOURCE_ADDRESS": "201 GRACEFIELD AVE",
  "SCHOOL_TYPE_DESC": "English Public",
  "ADDRESS_POINT_ID": 10035747,
  "LINEAR_NAME_FULL": "Gracefield Ave",
  "ADDRESS_FULL": "201 Gracefield Ave",
  "POSTAL_CODE": "M6L 1L7",
  "MUNICIPALITY": "North York",
  "CITY": "Toronto",
  "GENERAL_USE_CODE": 102001,
  "LONG": -79.4932822327979,
  "LAT": 43.7084286282992
},
{
  "_id": 44,
  "OBJECTID": 44,
  "GEO_ID": 30025396,
  "NAME": "ALPHA QUALITY EDUCATION INC",
  "SOURCE_ADDRESS": "6120A YONGE ST",
  "SCHOOL_TYPE_DESC": "Private",
  "ADDRESS_POINT_ID": 30025396,
  "LINEAR_NAME_FULL": "Yonge St",
  "ADDRESS_FULL": "6120A Yonge St",
  "POSTAL_CODE": "M2M 3W7",
  "MUNICIPALITY": "North York",
  "CITY": "Toronto",
  "GENERAL_USE_CODE": 115001,
  "LONG": -79.418932071581,
  "LAT": 43.7916222612949
},
{
  "_id": 37,
  "OBJECTID": 37,
  "GEO_ID": 9779413,
  "NAME": "ALIF CANADA ELEMENTARY SCHOOL",
  "SOURCE_ADDRESS": "505 ELLESMERE RD",
  "SCHOOL_TYPE_DESC": "Private",
  "ADDRESS_POINT_ID": 9779413,
  "LINEAR_NAME_FULL": "Ellesmere Rd",
  "ADDRESS_FULL": "505 Ellesmere Rd",
  "POSTAL_CODE": "M1R 4E5",
  "MUNICIPALITY": "Scarborough",
  "CITY": "Toronto",
  "GENERAL_USE_CODE": 109001,
  "LONG": -79.2949212969799,
  "LAT": 43.7621567551346
},
{
  "_id": 53,
  "OBJECTID": 53,
  "GEO_ID": 482522,
  "NAME": "ANCASTER PUBLIC SCHOOL",
  "SOURCE_ADDRESS": "44 ANCASTER RD",
  "SCHOOL_TYPE_DESC": "English Public",
  "ADDRESS_POINT_ID": 482522,
  "LINEAR_NAME_FULL": "Ancaster Rd",
  "ADDRESS_FULL": "44 Ancaster Rd",
  "POSTAL_CODE": "M3K 1S6",
  "MUNICIPALITY": "North York",
  "CITY": "Toronto",
  "GENERAL_USE_CODE": 102001,
  "LONG": -79.4669926271694,
  "LAT": 43.732866171726
},
{
  "_id": 54,
  "OBJECTID": 54,
  "GEO_ID": 7992305,
  "NAME": "ANNETTE STREET JUNIOR & SENIOR PUBLIC SCHOOL",
  "SOURCE_ADDRESS": "265 ANNETTE ST",
  "SCHOOL_TYPE_DESC": "English Public",
  "ADDRESS_POINT_ID": 7992305,
  "LINEAR_NAME_FULL": "Annette St",
  "ADDRESS_FULL": "265 Annette St",
  "POSTAL_CODE": "M6P 1R3",
  "MUNICIPALITY": "former Toronto",
  "CITY": "Toronto",
  "GENERAL_USE_CODE": 102001,
  "LONG": -79.4728312797592,
  "LAT": 43.6614231859019
},
{
  "_id": 55,
  "OBJECTID": 55,
  "GEO_ID": 485399,
  "NAME": "ANNUNCIATION CATHOLIC ELEMENTARY SCHOOL",
  "SOURCE_ADDRESS": "65 AVONWICK GT",
  "SCHOOL_TYPE_DESC": "English Separate",
  "ADDRESS_POINT_ID": 485399,
  "LINEAR_NAME_FULL": "Avonwick Gt",
  "ADDRESS_FULL": "65 Avonwick Gt",
  "POSTAL_CODE": "M3A 2M8",
  "MUNICIPALITY": "North York",
  "CITY": "Toronto",
  "GENERAL_USE_CODE": 102003,
  "LONG": -79.3210503278597,
  "LAT": 43.7531144810912
},
{
  "_id": 56,
  "OBJECTID": 56,
  "GEO_ID": 358063,
  "NAME": "ANSON PARK PUBLIC SCHOOL",
  "SOURCE_ADDRESS": "30 MACDUFF CRES",
  "SCHOOL_TYPE_DESC": "English Public",
  "ADDRESS_POINT_ID": 358063,
  "LINEAR_NAME_FULL": "Macduff Cres",
  "ADDRESS_FULL": "30 Macduff Cres",
  "POSTAL_CODE": "M1M 1X5",
  "MUNICIPALITY": "Scarborough",
  "CITY": "Toronto",
  "GENERAL_USE_CODE": 102001,
  "LONG": -79.2411154201694,
  "LAT": 43.7261289165667
},
{
  "_id": 57,
  "OBJECTID": 57,
  "GEO_ID": 374465,
  "NAME": "ANSON S TAYLOR JUNIOR PUBLIC SCHOOL",
  "SOURCE_ADDRESS": "20 PLACENTIA BLVD",
  "SCHOOL_TYPE_DESC": "English Public",
  "ADDRESS_POINT_ID": 374465,
  "LINEAR_NAME_FULL": "Placentia Blvd",
  "ADDRESS_FULL": "20 Placentia Blvd",
  "POSTAL_CODE": "M1S 4C5",
  "MUNICIPALITY": "Scarborough",
  "CITY": "Toronto",
  "GENERAL_USE_CODE": 102001,
  "LONG": -79.2615613356444,
  "LAT": 43.8042919764275
},
{
  "_id": 58,
  "OBJECTID": 58,
  "GEO_ID": 7131439,
  "NAME": "APOLLO HIGH SCHOOL",
  "SOURCE_ADDRESS": "5467 YONGE ST",
  "SCHOOL_TYPE_DESC": "Private",
  "ADDRESS_POINT_ID": 7131439,
  "LINEAR_NAME_FULL": "Yonge St",
  "ADDRESS_FULL": "5467 Yonge St",
  "POSTAL_CODE": "M2N 5S1",
  "MUNICIPALITY": "North York",
  "CITY": "Toronto",
  "GENERAL_USE_CODE": 107010,
  "LONG": -79.4147111812657,
  "LAT": 43.7778165673411
},
{
  "_id": 59,
  "OBJECTID": 59,
  "GEO_ID": 571348,
  "NAME": "APPLE ACADEMIC ACHIEVMENT CANADA",
  "SOURCE_ADDRESS": "488 VAN HORNE AVE",
  "SCHOOL_TYPE_DESC": "Private",
  "ADDRESS_POINT_ID": 571348,
  "LINEAR_NAME_FULL": "Van Horne Ave",
  "ADDRESS_FULL": "488 Van Horne Ave",
  "POSTAL_CODE": "M2J 2V2",
  "MUNICIPALITY": "North York",
  "CITY": "Toronto",
  "GENERAL_USE_CODE": 100001,
  "LONG": -79.339894533813,
  "LAT": 43.7871960727024
},
{
  "_id": 60,
  "OBJECTID": 60,
  "GEO_ID": 3107754,
  "NAME": "ARBOR GLEN PUBLIC SCHOOL",
  "SOURCE_ADDRESS": "55 FRESHMEADOW DR",
  "SCHOOL_TYPE_DESC": "English Public",
  "ADDRESS_POINT_ID": 3107754,
  "LINEAR_NAME_FULL": "Freshmeadow Dr",
  "ADDRESS_FULL": "55 Freshmeadow Dr",
  "POSTAL_CODE": "M2H 3H6",
  "MUNICIPALITY": "North York",
  "CITY": "Toronto",
  "GENERAL_USE_CODE": 102001,
  "LONG": -79.3557094447754,
  "LAT": 43.8094863867353
},
{
  "_id": 61,
  "OBJECTID": 61,
  "GEO_ID": 35493,
  "NAME": "ARISTOTELE'S CREDIT SCHOOL",
  "SOURCE_ADDRESS": "30 THORNCLIFFE PARK DR",
  "SCHOOL_TYPE_DESC": "Private",
  "ADDRESS_POINT_ID": 35493,
  "LINEAR_NAME_FULL": "Thorncliffe Park Dr",
  "ADDRESS_FULL": "30 Thorncliffe Park Dr",
  "POSTAL_CODE": "M4H 1H8",
  "MUNICIPALITY": "East York",
  "CITY": "Toronto",
  "GENERAL_USE_CODE": 109001,
  "LONG": -79.3449506415866,
  "LAT": 43.7029584141068
},
{
  "_id": 62,
  "OBJECTID": 62,
  "GEO_ID": 561783,
  "NAME": "ARKANA EDUCATION - PRIVATE HIGH SCHOOL",
  "SOURCE_ADDRESS": "209 SHEPPARD AVE E",
  "SCHOOL_TYPE_DESC": "Private",
  "ADDRESS_POINT_ID": 561783,
  "LINEAR_NAME_FULL": "Sheppard Ave E",
  "ADDRESS_FULL": "209 Sheppard Ave E",
  "POSTAL_CODE": "M2N 3A8",
  "MUNICIPALITY": "North York",
  "CITY": "Toronto",
  "GENERAL_USE_CODE": 107005,
  "LONG": -79.3984878978841,
  "LAT": 43.7639158093321
},
{
  "_id": 63,
  "OBJECTID": 63,
  "GEO_ID": 576041,
  "NAME": "ARMOUR HEIGHTS PUBLIC SCHOOL",
  "SOURCE_ADDRESS": "148 WILSON AVE",
  "SCHOOL_TYPE_DESC": "English Public",
  "ADDRESS_POINT_ID": 576041,
  "LINEAR_NAME_FULL": "Wilson Ave",
  "ADDRESS_FULL": "148 Wilson Ave",
  "POSTAL_CODE": "M5M 3A5",
  "MUNICIPALITY": "North York",
  "CITY": "Toronto",
  "GENERAL_USE_CODE": 102001,
  "LONG": -79.4195222787578,
  "LAT": 43.7409100432478
},
{
  "_id": 64,
  "OBJECTID": 64,
  "GEO_ID": 871450,
  "NAME": "ARROWSMITH SCHOOL - BLDG 1",
  "SOURCE_ADDRESS": "245 ST CLAIR AVE W",
  "SCHOOL_TYPE_DESC": "Private",
  "ADDRESS_POINT_ID": 871450,
  "LINEAR_NAME_FULL": "St Clair Ave W",
  "ADDRESS_FULL": "245 St Clair Ave W",
  "POSTAL_CODE": "M4V 1R3",
  "MUNICIPALITY": "former Toronto",
  "CITY": "Toronto",
  "GENERAL_USE_CODE": 112001,
  "LONG": -79.4057974161555,
  "LAT": 43.6854893204605
},
{
  "_id": 65,
  "OBJECTID": 65,
  "GEO_ID": 871449,
  "NAME": "ARROWSMITH SCHOOL - BLDG 2",
  "SOURCE_ADDRESS": "243 ST CLAIR AVE W",
  "SCHOOL_TYPE_DESC": "Private",
  "ADDRESS_POINT_ID": 871449,
  "LINEAR_NAME_FULL": "St Clair Ave W",
  "ADDRESS_FULL": "243 St Clair Ave W",
  "POSTAL_CODE": "M4V 1R3",
  "MUNICIPALITY": "former Toronto",
  "CITY": "Toronto",
  "GENERAL_USE_CODE": 109001,
  "LONG": -79.4056854013319,
  "LAT": 43.6855028020622
},
{
  "_id": 66,
  "OBJECTID": 66,
  "GEO_ID": 13516164,
  "NAME": "ASSOCIATED HEBREW JR SCHOOL - POSLUNS CAMPUS",
  "SOURCE_ADDRESS": "18 NEPTUNE DR",
  "SCHOOL_TYPE_DESC": "Private",
  "ADDRESS_POINT_ID": 13516164,
  "LINEAR_NAME_FULL": "Neptune Dr",
  "ADDRESS_FULL": "18 Neptune Dr",
  "POSTAL_CODE": "M6A 1X1",
  "MUNICIPALITY": "North York",
  "CITY": "Toronto",
  "GENERAL_USE_CODE": 102008,
  "LONG": -79.4342526359219,
  "LAT": 43.7314993952097
},
{
  "_id": 68,
  "OBJECTID": 68,
  "GEO_ID": 13977971,
  "NAME": "AVALON CHILDREN'S MONTESSORI",
  "SOURCE_ADDRESS": "2181 QUEEN ST E",
  "SCHOOL_TYPE_DESC": "Private",
  "ADDRESS_POINT_ID": 13977971,
  "LINEAR_NAME_FULL": "Queen St E",
  "ADDRESS_FULL": "2181 Queen St E",
  "POSTAL_CODE": "M4E 1E5",
  "MUNICIPALITY": "former Toronto",
  "CITY": "Toronto",
  "GENERAL_USE_CODE": 115001,
  "LONG": -79.297325301116,
  "LAT": 43.6704133895472
},
{
  "_id": 67,
  "OBJECTID": 67,
  "GEO_ID": 11129594,
  "NAME": "ASSOCIATED HEBREW MIDDLE SCHOOL - HURWICH CAMPUS",
  "SOURCE_ADDRESS": "252 FINCH AVE W",
  "SCHOOL_TYPE_DESC": "Private",
  "ADDRESS_POINT_ID": 11129594,
  "LINEAR_NAME_FULL": "Finch Ave W",
  "ADDRESS_FULL": "252 Finch Ave W",
  "POSTAL_CODE": "M2R 1M9",
  "MUNICIPALITY": "North York",
  "CITY": "Toronto",
  "GENERAL_USE_CODE": 115001,
  "LONG": -79.4384699547393,
  "LAT": 43.7753161015838
},
{
  "_id": 69,
  "OBJECTID": 69,
  "GEO_ID": 485329,
  "NAME": "AVONDALE ALTERNATIVE ELEMENTARY SCHOOL",
  "SOURCE_ADDRESS": "171 AVONDALE AVE",
  "SCHOOL_TYPE_DESC": "English Public",
  "ADDRESS_POINT_ID": 485329,
  "LINEAR_NAME_FULL": "Avondale Ave",
  "ADDRESS_FULL": "171 Avondale Ave",
  "POSTAL_CODE": "M2N 2V4",
  "MUNICIPALITY": "North York",
  "CITY": "Toronto",
  "GENERAL_USE_CODE": 115001,
  "LONG": -79.4000020943236,
  "LAT": 43.7596784143197
},
{
  "_id": 70,
  "OBJECTID": 70,
  "GEO_ID": 7315504,
  "NAME": "AVONDALE ALTERNATIVE SECONDARY SCHOOL",
  "SOURCE_ADDRESS": "24 SILVERVIEW DR",
  "SCHOOL_TYPE_DESC": "English Public",
  "ADDRESS_POINT_ID": 7315504,
  "LINEAR_NAME_FULL": "Silverview Dr",
  "ADDRESS_FULL": "24 Silverview Dr",
  "POSTAL_CODE": "M2M 2B3",
  "MUNICIPALITY": "North York",
  "CITY": "Toronto",
  "GENERAL_USE_CODE": 102001,
  "LONG": -79.4118431542439,
  "LAT": 43.7863065106423
},
{
  "_id": 71,
  "OBJECTID": 71,
  "GEO_ID": 485329,
  "NAME": "AVONDALE PUBLIC SCHOOL",
  "SOURCE_ADDRESS": "171 AVONDALE AVE",
  "SCHOOL_TYPE_DESC": "English Public",
  "ADDRESS_POINT_ID": 485329,
  "LINEAR_NAME_FULL": "Avondale Ave",
  "ADDRESS_FULL": "171 Avondale Ave",
  "POSTAL_CODE": "M2N 2V4",
  "MUNICIPALITY": "North York",
  "CITY": "Toronto",
  "GENERAL_USE_CODE": 115001,
  "LONG": -79.4000020943236,
  "LAT": 43.7596784143197
},
{
  "_id": 72,
  "OBJECTID": 72,
  "GEO_ID": 1368930,
  "NAME": "AVRO ACADEMY",
  "SOURCE_ADDRESS": "1640A AVENUE RD",
  "SCHOOL_TYPE_DESC": "Private",
  "ADDRESS_POINT_ID": 1368930,
  "LINEAR_NAME_FULL": "Avenue Rd",
  "ADDRESS_FULL": "1640A Avenue Rd",
  "POSTAL_CODE": "M5M 3X9",
  "MUNICIPALITY": "North York",
  "CITY": "Toronto",
  "GENERAL_USE_CODE": 115001,
  "LONG": -79.4174202535642,
  "LAT": 43.7259898430287
},
{
  "_id": 73,
  "OBJECTID": 73,
  "GEO_ID": 9171677,
  "NAME": "BAIS CHAYA MUSHKA GIRLS",
  "SOURCE_ADDRESS": "4375 CHESSWOOD DR",
  "SCHOOL_TYPE_DESC": "Private",
  "ADDRESS_POINT_ID": 9171677,
  "LINEAR_NAME_FULL": "Chesswood Dr",
  "ADDRESS_FULL": "4375 Chesswood Dr",
  "POSTAL_CODE": "M3J 2C2",
  "MUNICIPALITY": "North York",
  "CITY": "Toronto",
  "GENERAL_USE_CODE": 115001,
  "LONG": -79.4774419814072,
  "LAT": 43.7607082264476
},
{
  "_id": 74,
  "OBJECTID": 74,
  "GEO_ID": 487179,
  "NAME": "BAIS CHOMESH HS FOR GIRLS",
  "SOURCE_ADDRESS": "3600 BATHURST ST",
  "SCHOOL_TYPE_DESC": "Private",
  "ADDRESS_POINT_ID": 487179,
  "LINEAR_NAME_FULL": "Bathurst St",
  "ADDRESS_FULL": "3600 Bathurst St",
  "POSTAL_CODE": "M6A 2C9",
  "MUNICIPALITY": "North York",
  "CITY": "Toronto",
  "GENERAL_USE_CODE": 109001,
  "LONG": -79.4330769430682,
  "LAT": 43.7311158004386
},
{
  "_id": 75,
  "OBJECTID": 75,
  "GEO_ID": 559733,
  "NAME": "BAIS YAAKOV ELEMENTARY SCHOOL",
  "SOURCE_ADDRESS": "15 SARANAC BLVD",
  "SCHOOL_TYPE_DESC": "Private",
  "ADDRESS_POINT_ID": 559733,
  "LINEAR_NAME_FULL": "Saranac Blvd",
  "ADDRESS_FULL": "15 Saranac Blvd",
  "POSTAL_CODE": "M6A 2G4",
  "MUNICIPALITY": "North York",
  "CITY": "Toronto",
  "GENERAL_USE_CODE": 102005,
  "LONG": -79.431869443854,
  "LAT": 43.721429256651
},
{
  "_id": 76,
  "OBJECTID": 76,
  "GEO_ID": 325461,
  "NAME": "BAITUL MUKARRAM ACADEMY SCHOOL",
  "SOURCE_ADDRESS": "3334 DANFORTH AVE",
  "SCHOOL_TYPE_DESC": "Private",
  "ADDRESS_POINT_ID": 325461,
  "LINEAR_NAME_FULL": "Danforth Ave",
  "ADDRESS_FULL": "3334 Danforth Ave",
  "POSTAL_CODE": "M1L 1C6",
  "MUNICIPALITY": "Scarborough",
  "CITY": "Toronto",
  "GENERAL_USE_CODE": 104008,
  "LONG": -79.2781378251157,
  "LAT": 43.6937302131784
},
{
  "_id": 77,
  "OBJECTID": 77,
  "GEO_ID": 9848255,
  "NAME": "BALA AVENUE COMMUNITY SCHOOL",
  "SOURCE_ADDRESS": "6 BALA AVE",
  "SCHOOL_TYPE_DESC": "English Public",
  "ADDRESS_POINT_ID": 9848255,
  "LINEAR_NAME_FULL": "Bala Ave",
  "ADDRESS_FULL": "6 Bala Ave",
  "POSTAL_CODE": "M6M 2E1",
  "MUNICIPALITY": "York",
  "CITY": "Toronto",
  "GENERAL_USE_CODE": 102001,
  "LONG": -79.4990122716087,
  "LAT": 43.6894622237887
},
{
  "_id": 78,
  "OBJECTID": 78,
  "GEO_ID": 62453,
  "NAME": "BALANCED EDUCATION NETWORK B.E.N. SCHOOL",
  "SOURCE_ADDRESS": "394 HARVIE AVE",
  "SCHOOL_TYPE_DESC": "Private",
  "ADDRESS_POINT_ID": 62453,
  "LINEAR_NAME_FULL": "Harvie Ave",
  "ADDRESS_FULL": "394 Harvie Ave",
  "POSTAL_CODE": "M6E 4L8",
  "MUNICIPALITY": "York",
  "CITY": "Toronto",
  "GENERAL_USE_CODE": 100001,
  "LONG": -79.4546890976067,
  "LAT": 43.6875353134585
},
{
  "_id": 80,
  "OBJECTID": 80,
  "GEO_ID": 486277,
  "NAME": "BANNOCKBURN MONTESSORI",
  "SOURCE_ADDRESS": "12 BANNOCKBURN AVE",
  "SCHOOL_TYPE_DESC": "Private",
  "ADDRESS_POINT_ID": 486277,
  "LINEAR_NAME_FULL": "Bannockburn Ave",
  "ADDRESS_FULL": "12 Bannockburn Ave",
  "POSTAL_CODE": "M5M 2M8",
  "MUNICIPALITY": "North York",
  "CITY": "Toronto",
  "GENERAL_USE_CODE": 102005,
  "LONG": -79.4220900214957,
  "LAT": 43.7340229971509
},
{
  "_id": 79,
  "OBJECTID": 79,
  "GEO_ID": 7667200,
  "NAME": "BALMY BEACH COMMUNITY SCHOOL",
  "SOURCE_ADDRESS": "14 PINE AVE",
  "SCHOOL_TYPE_DESC": "English Public",
  "ADDRESS_POINT_ID": 7667200,
  "LINEAR_NAME_FULL": "Pine Ave",
  "ADDRESS_FULL": "14 Pine Ave",
  "POSTAL_CODE": "M4E 1L6",
  "MUNICIPALITY": "former Toronto",
  "CITY": "Toronto",
  "GENERAL_USE_CODE": 106007,
  "LONG": -79.289826941499,
  "LAT": 43.6764359194877
},
{
  "_id": 81,
  "OBJECTID": 81,
  "GEO_ID": 338836,
  "NAME": "BANTING AND BEST PUBLIC SCHOOL",
  "SOURCE_ADDRESS": "380 GOLDHAWK TRL",
  "SCHOOL_TYPE_DESC": "English Public",
  "ADDRESS_POINT_ID": 338836,
  "LINEAR_NAME_FULL": "Goldhawk Trl",
  "ADDRESS_FULL": "380 Goldhawk Trl",
  "POSTAL_CODE": "M1V 4E7",
  "MUNICIPALITY": "Scarborough",
  "CITY": "Toronto",
  "GENERAL_USE_CODE": 102001,
  "LONG": -79.2798335039423,
  "LAT": 43.8268714163484
},
{
  "_id": 82,
  "OBJECTID": 82,
  "GEO_ID": 514037,
  "NAME": "BAY SCHOOL OF CANADA",
  "SOURCE_ADDRESS": "245 FAIRVIEW MALL DR",
  "SCHOOL_TYPE_DESC": "Private",
  "ADDRESS_POINT_ID": 514037,
  "LINEAR_NAME_FULL": "Fairview Mall Dr",
  "ADDRESS_FULL": "245 Fairview Mall Dr",
  "POSTAL_CODE": "M2J 4T1",
  "MUNICIPALITY": "North York",
  "CITY": "Toronto",
  "GENERAL_USE_CODE": 104008,
  "LONG": -79.3418613934873,
  "LAT": 43.779729054192
},
{
  "_id": 83,
  "OBJECTID": 83,
  "GEO_ID": 487550,
  "NAME": "BAYCREST PUBLIC SCHOOL",
  "SOURCE_ADDRESS": "145 BAYCREST AVE",
  "SCHOOL_TYPE_DESC": "English Public",
  "ADDRESS_POINT_ID": 487550,
  "LINEAR_NAME_FULL": "Baycrest Ave",
  "ADDRESS_FULL": "145 Baycrest Ave",
  "POSTAL_CODE": "M6A 1W4",
  "MUNICIPALITY": "North York",
  "CITY": "Toronto",
  "GENERAL_USE_CODE": 102001,
  "LONG": -79.4442515073691,
  "LAT": 43.7266057772143
},
{
  "_id": 85,
  "OBJECTID": 85,
  "GEO_ID": 7963754,
  "NAME": "BAYVIEW MIDDLE SCHOOL",
  "SOURCE_ADDRESS": "25 BUNTY LANE",
  "SCHOOL_TYPE_DESC": "English Public",
  "ADDRESS_POINT_ID": 7963754,
  "LINEAR_NAME_FULL": "Bunty Lane",
  "ADDRESS_FULL": "25 Bunty Lane",
  "POSTAL_CODE": "M2K 1W4",
  "MUNICIPALITY": "North York",
  "CITY": "Toronto",
  "GENERAL_USE_CODE": 102001,
  "LONG": -79.3852946788356,
  "LAT": 43.7762622265316
},
{
  "_id": 84,
  "OBJECTID": 84,
  "GEO_ID": 11414990,
  "NAME": "BAYVIEW GLEN PRIVATE SCHOOL",
  "SOURCE_ADDRESS": "85 MOATFIELD DR",
  "SCHOOL_TYPE_DESC": "Private",
  "ADDRESS_POINT_ID": 11414990,
  "LINEAR_NAME_FULL": "Moatfield Dr",
  "ADDRESS_FULL": "85 Moatfield Dr",
  "POSTAL_CODE": "M3B 3L6",
  "MUNICIPALITY": "North York",
  "CITY": "Toronto",
  "GENERAL_USE_CODE": 115001,
  "LONG": -79.3518336805625,
  "LAT": 43.7590325568427
},
{
  "_id": 86,
  "OBJECTID": 86,
  "GEO_ID": 876040,
  "NAME": "BEACHES ALTERNATIVE JUNIOR SCHOOL",
  "SOURCE_ADDRESS": "50 SWANWICK AVE",
  "SCHOOL_TYPE_DESC": "English Public",
  "ADDRESS_POINT_ID": 876040,
  "LINEAR_NAME_FULL": "Swanwick Ave",
  "ADDRESS_FULL": "50 Swanwick Ave",
  "POSTAL_CODE": "M4E 1Z5",
  "MUNICIPALITY": "former Toronto",
  "CITY": "Toronto",
  "GENERAL_USE_CODE": 102001,
  "LONG": -79.2991278839731,
  "LAT": 43.6826199722785
},
{
  "_id": 87,
  "OBJECTID": 87,
  "GEO_ID": 7640837,
  "NAME": "BEACON OF LIGHT PRIVATE ELEMENTARY SCHOOL",
  "SOURCE_ADDRESS": "2191 GERRARD ST E",
  "SCHOOL_TYPE_DESC": "Private",
  "ADDRESS_POINT_ID": 7640837,
  "LINEAR_NAME_FULL": "Gerrard St E",
  "ADDRESS_FULL": "2191 Gerrard St E",
  "POSTAL_CODE": "M4E 2C6",
  "MUNICIPALITY": "former Toronto",
  "CITY": "Toronto",
  "GENERAL_USE_CODE": 100001,
  "LONG": -79.300828064662,
  "LAT": 43.6835603974233
},
{
  "_id": 88,
  "OBJECTID": 88,
  "GEO_ID": 1019694,
  "NAME": "BEAUMONDE HEIGHTS JUNIOR MIDDLE SCHOOL",
  "SOURCE_ADDRESS": "70 MONTERREY DR",
  "SCHOOL_TYPE_DESC": "English Public",
  "ADDRESS_POINT_ID": 1019694,
  "LINEAR_NAME_FULL": "Monterrey Dr",
  "ADDRESS_FULL": "70 Monterrey Dr",
  "POSTAL_CODE": "M9V 1T1",
  "MUNICIPALITY": "Etobicoke",
  "CITY": "Toronto",
  "GENERAL_USE_CODE": 102001,
  "LONG": -79.5747551861525,
  "LAT": 43.7426035565314
},
{
  "_id": 89,
  "OBJECTID": 89,
  "GEO_ID": 7792874,
  "NAME": "BEDFORD PARK PUBLIC SCHOOL",
  "SOURCE_ADDRESS": "81 RANLEIGH AVE",
  "SCHOOL_TYPE_DESC": "English Public",
  "ADDRESS_POINT_ID": 7792874,
  "LINEAR_NAME_FULL": "Ranleigh Ave",
  "ADDRESS_FULL": "81 Ranleigh Ave",
  "POSTAL_CODE": "M4N 1X2",
  "MUNICIPALITY": "former Toronto",
  "CITY": "Toronto",
  "GENERAL_USE_CODE": 106007,
  "LONG": -79.4002783723743,
  "LAT": 43.7277982581742
},
{
  "_id": 90,
  "OBJECTID": 90,
  "GEO_ID": 9085421,
  "NAME": "BEHAVIOUR INNOVATIONS, CHILDREN'S COLLEGE",
  "SOURCE_ADDRESS": "618 THE QUEENSWAY",
  "SCHOOL_TYPE_DESC": "Private",
  "ADDRESS_POINT_ID": 9085421,
  "LINEAR_NAME_FULL": "The Queensway",
  "ADDRESS_FULL": "618 The Queensway",
  "POSTAL_CODE": "M8Y 1K3",
  "MUNICIPALITY": "Etobicoke",
  "CITY": "Toronto",
  "GENERAL_USE_CODE": 115001,
  "LONG": -79.4954821417463,
  "LAT": 43.6281819609662
},
{
  "_id": 91,
  "OBJECTID": 91,
  "GEO_ID": 11485082,
  "NAME": "BEHTUNE MEMORIAL SCHOOL",
  "SOURCE_ADDRESS": "3000 LAWRENCE AVE E",
  "SCHOOL_TYPE_DESC": "Private",
  "ADDRESS_POINT_ID": 11485082,
  "LINEAR_NAME_FULL": "Lawrence Ave E",
  "ADDRESS_FULL": "3000 Lawrence Ave E",
  "POSTAL_CODE": "M1P 2V1",
  "MUNICIPALITY": "Scarborough",
  "CITY": "Toronto",
  "GENERAL_USE_CODE": 115001,
  "LONG": -79.2496002393537,
  "LAT": 43.7553058764084
},
{
  "_id": 92,
  "OBJECTID": 92,
  "GEO_ID": 312976,
  "NAME": "BELLMERE JUNIOR PUBLIC SCHOOL",
  "SOURCE_ADDRESS": "470 BRIMORTON DR",
  "SCHOOL_TYPE_DESC": "English Public",
  "ADDRESS_POINT_ID": 312976,
  "LINEAR_NAME_FULL": "Brimorton Dr",
  "ADDRESS_FULL": "470 Brimorton Dr",
  "POSTAL_CODE": "M1H 2E6",
  "MUNICIPALITY": "Scarborough",
  "CITY": "Toronto",
  "GENERAL_USE_CODE": 102001,
  "LONG": -79.23514687523,
  "LAT": 43.7719692863916
},
{
  "_id": 93,
  "OBJECTID": 93,
  "GEO_ID": 386802,
  "NAME": "BEN HEPPNER VOCAL MUSIC ACADEMY",
  "SOURCE_ADDRESS": "80 SLAN AVE",
  "SCHOOL_TYPE_DESC": "English Public",
  "ADDRESS_POINT_ID": 386802,
  "LINEAR_NAME_FULL": "Slan Ave",
  "ADDRESS_FULL": "80 Slan Ave",
  "POSTAL_CODE": "M1G 3B5",
  "MUNICIPALITY": "Scarborough",
  "CITY": "Toronto",
  "GENERAL_USE_CODE": 102001,
  "LONG": -79.2150687264433,
  "LAT": 43.7751558784252
},
{
  "_id": 94,
  "OBJECTID": 94,
  "GEO_ID": 307066,
  "NAME": "BENDALE JUNIOR PUBLIC SCHOOL",
  "SOURCE_ADDRESS": "61 BENSHIRE DR",
  "SCHOOL_TYPE_DESC": "English Public",
  "ADDRESS_POINT_ID": 307066,
  "LINEAR_NAME_FULL": "Benshire Dr",
  "ADDRESS_FULL": "61 Benshire Dr",
  "POSTAL_CODE": "M1H 1M4",
  "MUNICIPALITY": "Scarborough",
  "CITY": "Toronto",
  "GENERAL_USE_CODE": 102001,
  "LONG": -79.2448802576444,
  "LAT": 43.7625671183697
},
{
  "_id": 95,
  "OBJECTID": 95,
  "GEO_ID": 2945619,
  "NAME": "BENNINGTON HEIGHTS ELEMENTARY SCHOOL",
  "SOURCE_ADDRESS": "76 BENNINGTON HEIGHTS DR",
  "SCHOOL_TYPE_DESC": "English Public",
  "ADDRESS_POINT_ID": 2945619,
  "LINEAR_NAME_FULL": "Bennington Heights Dr",
  "ADDRESS_FULL": "76 Bennington Heights Dr",
  "POSTAL_CODE": "M4G 1B1",
  "MUNICIPALITY": "East York",
  "CITY": "Toronto",
  "GENERAL_USE_CODE": 102001,
  "LONG": -79.3687780820258,
  "LAT": 43.6939854007409
},
{
  "_id": 96,
  "OBJECTID": 96,
  "GEO_ID": 3563886,
  "NAME": "BERKELEY ACADEMY OF CANADA",
  "SOURCE_ADDRESS": "5734 YONGE ST",
  "SCHOOL_TYPE_DESC": "Private",
  "ADDRESS_POINT_ID": 3563886,
  "LINEAR_NAME_FULL": "Yonge St",
  "ADDRESS_FULL": "5734 Yonge St",
  "POSTAL_CODE": "M2M 4E7",
  "MUNICIPALITY": "North York",
  "CITY": "Toronto",
  "GENERAL_USE_CODE": 104008,
  "LONG": -79.4168605979594,
  "LAT": 43.7827541057168
},
{
  "_id": 97,
  "OBJECTID": 97,
  "GEO_ID": 307348,
  "NAME": "BERNER TRAIL JUNIOR PUBLIC SCHOOL",
  "SOURCE_ADDRESS": "120 BERNER TRL",
  "SCHOOL_TYPE_DESC": "English Public",
  "ADDRESS_POINT_ID": 307348,
  "LINEAR_NAME_FULL": "Berner Trl",
  "ADDRESS_FULL": "120 Berner Trl",
  "POSTAL_CODE": "M1B 1B3",
  "MUNICIPALITY": "Scarborough",
  "CITY": "Toronto",
  "GENERAL_USE_CODE": 106007,
  "LONG": -79.2211413058912,
  "LAT": 43.8014341079073
},
{
  "_id": 98,
  "OBJECTID": 98,
  "GEO_ID": 17935,
  "NAME": "BESSBOROUGH DRIVE ELEMENTARY AND MIDDLE SCHOOL",
  "SOURCE_ADDRESS": "211 BESSBOROUGH DR",
  "SCHOOL_TYPE_DESC": "English Public",
  "ADDRESS_POINT_ID": 17935,
  "LINEAR_NAME_FULL": "Bessborough Dr",
  "ADDRESS_FULL": "211 Bessborough Dr",
  "POSTAL_CODE": "M4G 3K2",
  "MUNICIPALITY": "East York",
  "CITY": "Toronto",
  "GENERAL_USE_CODE": 102001,
  "LONG": -79.3701352031944,
  "LAT": 43.7072147378542
},
{
  "_id": 99,
  "OBJECTID": 99,
  "GEO_ID": 535998,
  "NAME": "BETH JACOB PRIVATE HS",
  "SOURCE_ADDRESS": "410 LAWRENCE AVE W",
  "SCHOOL_TYPE_DESC": "Private",
  "ADDRESS_POINT_ID": 535998,
  "LINEAR_NAME_FULL": "Lawrence Ave W",
  "ADDRESS_FULL": "410 Lawrence Ave W",
  "POSTAL_CODE": "M5M 1C2",
  "MUNICIPALITY": "North York",
  "CITY": "Toronto",
  "GENERAL_USE_CODE": 102005,
  "LONG": -79.4237607656785,
  "LAT": 43.7207940844222
},
{
  "_id": 100,
  "OBJECTID": 100,
  "GEO_ID": 363593,
  "NAME": "BETHUNE INTERNATIONAL ACADEMY",
  "SOURCE_ADDRESS": "3838 MIDLAND AVE",
  "SCHOOL_TYPE_DESC": "Private",
  "ADDRESS_POINT_ID": 363593,
  "LINEAR_NAME_FULL": "Midland Ave",
  "ADDRESS_FULL": "3838 Midland Ave",
  "POSTAL_CODE": "M1V 5K5",
  "MUNICIPALITY": "Scarborough",
  "CITY": "Toronto",
  "GENERAL_USE_CODE": 107005,
  "LONG": -79.2947427602857,
  "LAT": 43.8194042587414
},
{
  "_id": 101,
  "OBJECTID": 101,
  "GEO_ID": 11485082,
  "NAME": "BETHUNE MEMORIAL SCHOOL",
  "SOURCE_ADDRESS": "3000 LAWRENCE AVE E",
  "SCHOOL_TYPE_DESC": "Private",
  "ADDRESS_POINT_ID": 11485082,
  "LINEAR_NAME_FULL": "Lawrence Ave E",
  "ADDRESS_FULL": "3000 Lawrence Ave E",
  "POSTAL_CODE": "M1P 2V1",
  "MUNICIPALITY": "Scarborough",
  "CITY": "Toronto",
  "GENERAL_USE_CODE": 115001,
  "LONG": -79.2496002393537,
  "LAT": 43.7553058764084
},
{
  "_id": 102,
  "OBJECTID": 102,
  "GEO_ID": 570175,
  "NAME": "BEVERLEY HEIGHTS MIDDLE SCHOOL",
  "SOURCE_ADDRESS": "26 TROUTBROOKE DR",
  "SCHOOL_TYPE_DESC": "English Public",
  "ADDRESS_POINT_ID": 570175,
  "LINEAR_NAME_FULL": "Troutbrooke Dr",
  "ADDRESS_FULL": "26 Troutbrooke Dr",
  "POSTAL_CODE": "M3M 1S5",
  "MUNICIPALITY": "North York",
  "CITY": "Toronto",
  "GENERAL_USE_CODE": 102001,
  "LONG": -79.5047717197305,
  "LAT": 43.7330245969924
},
{
  "_id": 103,
  "OBJECTID": 103,
  "GEO_ID": 6350055,
  "NAME": "BEVERLEY SCHOOL",
  "SOURCE_ADDRESS": "64 BALDWIN ST",
  "SCHOOL_TYPE_DESC": "English Public",
  "ADDRESS_POINT_ID": 6350055,
  "LINEAR_NAME_FULL": "Baldwin St",
  "ADDRESS_FULL": "64 Baldwin St",
  "POSTAL_CODE": "M5T 1L4",
  "MUNICIPALITY": "former Toronto",
  "CITY": "Toronto",
  "GENERAL_USE_CODE": 115001,
  "LONG": -79.3957051033565,
  "LAT": 43.6557652368658
},
{
  "_id": 104,
  "OBJECTID": 104,
  "GEO_ID": 307817,
  "NAME": "BEVERLY GLEN JUNIOR PUBLIC SCHOOL",
  "SOURCE_ADDRESS": "85 BEVERLY GLEN BLVD",
  "SCHOOL_TYPE_DESC": "English Public",
  "ADDRESS_POINT_ID": 307817,
  "LINEAR_NAME_FULL": "Beverly Glen Blvd",
  "ADDRESS_FULL": "85 Beverly Glen Blvd",
  "POSTAL_CODE": "M1W 1W4",
  "MUNICIPALITY": "Scarborough",
  "CITY": "Toronto",
  "GENERAL_USE_CODE": 102001,
  "LONG": -79.3230676298928,
  "LAT": 43.7986530998679
},
{
  "_id": 105,
  "OBJECTID": 105,
  "GEO_ID": 14615528,
  "NAME": "BIALIK HEBREW DAY SCHOOL",
  "SOURCE_ADDRESS": "2760 BATHURST ST",
  "SCHOOL_TYPE_DESC": "Private",
  "ADDRESS_POINT_ID": 14615528,
  "LINEAR_NAME_FULL": "Bathurst St",
  "ADDRESS_FULL": "2760 Bathurst St",
  "POSTAL_CODE": "M6B 3A1",
  "MUNICIPALITY": "North York",
  "CITY": "Toronto",
  "GENERAL_USE_CODE": 102005,
  "LONG": -79.428122887706,
  "LAT": 43.7107064288581
},
{
  "_id": 106,
  "OBJECTID": 106,
  "GEO_ID": 343964,
  "NAME": "BIRCH CLIFF HEIGHTS PUBLIC SCHOOL",
  "SOURCE_ADDRESS": "120 HIGHVIEW AVE",
  "SCHOOL_TYPE_DESC": "English Public",
  "ADDRESS_POINT_ID": 343964,
  "LINEAR_NAME_FULL": "Highview Ave",
  "ADDRESS_FULL": "120 Highview Ave",
  "POSTAL_CODE": "M1N 2J1",
  "MUNICIPALITY": "Scarborough",
  "CITY": "Toronto",
  "GENERAL_USE_CODE": 102001,
  "LONG": -79.259816624788,
  "LAT": 43.7017413937537
},
{
  "_id": 107,
  "OBJECTID": 107,
  "GEO_ID": 351953,
  "NAME": "BIRCH CLIFF PUBLIC SCHOOL",
  "SOURCE_ADDRESS": "1650 KINGSTON RD",
  "SCHOOL_TYPE_DESC": "English Public",
  "ADDRESS_POINT_ID": 351953,
  "LINEAR_NAME_FULL": "Kingston Rd",
  "ADDRESS_FULL": "1650 Kingston Rd",
  "POSTAL_CODE": "M1N 1S2",
  "MUNICIPALITY": "Scarborough",
  "CITY": "Toronto",
  "GENERAL_USE_CODE": 102001,
  "LONG": -79.2655686242961,
  "LAT": 43.6919887241508
},
{
  "_id": 109,
  "OBJECTID": 109,
  "GEO_ID": 325504,
  "NAME": "BIRCHMOUNT PARK COLLEGIATE INSTITUTE",
  "SOURCE_ADDRESS": "3663 DANFORTH AVE",
  "SCHOOL_TYPE_DESC": "English Public",
  "ADDRESS_POINT_ID": 325504,
  "LINEAR_NAME_FULL": "Danforth Ave",
  "ADDRESS_FULL": "3663 Danforth Ave",
  "POSTAL_CODE": "M1N 2G2",
  "MUNICIPALITY": "Scarborough",
  "CITY": "Toronto",
  "GENERAL_USE_CODE": 102002,
  "LONG": -79.2594545253619,
  "LAT": 43.697753029491
},
{
  "_id": 110,
  "OBJECTID": 110,
  "GEO_ID": 10142921,
  "NAME": "BISHOP ALLEN ACADEMY",
  "SOURCE_ADDRESS": "721 ROYAL YORK RD",
  "SCHOOL_TYPE_DESC": "English Separate",
  "ADDRESS_POINT_ID": 10142921,
  "LINEAR_NAME_FULL": "Royal York Rd",
  "ADDRESS_FULL": "721 Royal York Rd",
  "POSTAL_CODE": "M8Y 2T3",
  "MUNICIPALITY": "Etobicoke",
  "CITY": "Toronto",
  "GENERAL_USE_CODE": 102004,
  "LONG": -79.5044646880695,
  "LAT": 43.6344279205779
},
{
  "_id": 108,
  "OBJECTID": 108,
  "GEO_ID": 7156751,
  "NAME": "BIRCHAS SHMUEL PRIVATE SCHOOL",
  "SOURCE_ADDRESS": "465 PATRICIA AVE",
  "SCHOOL_TYPE_DESC": "Private",
  "ADDRESS_POINT_ID": 7156751,
  "LINEAR_NAME_FULL": "Patricia Ave",
  "ADDRESS_FULL": "465 Patricia Ave",
  "POSTAL_CODE": "M2R 2N1",
  "MUNICIPALITY": "North York",
  "CITY": "Toronto",
  "GENERAL_USE_CODE": 109001,
  "LONG": -79.4440107260137,
  "LAT": 43.7840867068011
},
{
  "_id": 112,
  "OBJECTID": 112,
  "GEO_ID": 9638444,
  "NAME": "BISHOP MARROCCO THOMAS MERTON CATHOLIC SECONDARY SCHOOL",
  "SOURCE_ADDRESS": "1515 BLOOR ST W",
  "SCHOOL_TYPE_DESC": "English Separate",
  "ADDRESS_POINT_ID": 9638444,
  "LINEAR_NAME_FULL": "Bloor St W",
  "ADDRESS_FULL": "1515 Bloor St W",
  "POSTAL_CODE": "M6P 1A3",
  "MUNICIPALITY": "former Toronto",
  "CITY": "Toronto",
  "GENERAL_USE_CODE": 102004,
  "LONG": -79.4518077136626,
  "LAT": 43.655857833558
},
{
  "_id": 111,
  "OBJECTID": 111,
  "GEO_ID": 30024946,
  "NAME": "BISHOP MACDONELL CATHOLIC ELEMENTARY SCHOOL",
  "SOURCE_ADDRESS": "20 BRUNEL CRT",
  "SCHOOL_TYPE_DESC": "English Separate",
  "ADDRESS_POINT_ID": 30024946,
  "LINEAR_NAME_FULL": "Brunel Crt",
  "ADDRESS_FULL": "20 Brunel Crt",
  "POSTAL_CODE": "M5V 0R5",
  "MUNICIPALITY": "former Toronto",
  "CITY": "Toronto",
  "GENERAL_USE_CODE": 114001,
  "LONG": -79.3944968858206,
  "LAT": 43.6394568233632
},
{
  "_id": 113,
  "OBJECTID": 113,
  "GEO_ID": 834715,
  "NAME": "BISHOP STRACHAN",
  "SOURCE_ADDRESS": "298 LONSDALE RD",
  "SCHOOL_TYPE_DESC": "Private",
  "ADDRESS_POINT_ID": 834715,
  "LINEAR_NAME_FULL": "Lonsdale Rd",
  "ADDRESS_FULL": "298 Lonsdale Rd",
  "POSTAL_CODE": "M4V 1X2",
  "MUNICIPALITY": "former Toronto",
  "CITY": "Toronto",
  "GENERAL_USE_CODE": 102005,
  "LONG": -79.4093249176371,
  "LAT": 43.690345107705
},
{
  "_id": 114,
  "OBJECTID": 114,
  "GEO_ID": 490154,
  "NAME": "BLACKSMITH PUBLIC SCHOOL",
  "SOURCE_ADDRESS": "45 BLACKSMITH CRES",
  "SCHOOL_TYPE_DESC": "English Public",
  "ADDRESS_POINT_ID": 490154,
  "LINEAR_NAME_FULL": "Blacksmith Cres",
  "ADDRESS_FULL": "45 Blacksmith Cres",
  "POSTAL_CODE": "M3N 1V5",
  "MUNICIPALITY": "North York",
  "CITY": "Toronto",
  "GENERAL_USE_CODE": 102001,
  "LONG": -79.5268106869839,
  "LAT": 43.7711639591637
},
{
  "_id": 116,
  "OBJECTID": 116,
  "GEO_ID": 309574,
  "NAME": "BLANTYRE PUBLIC SCHOOL",
  "SOURCE_ADDRESS": "290 BLANTYRE AVE",
  "SCHOOL_TYPE_DESC": "English Public",
  "ADDRESS_POINT_ID": 309574,
  "LINEAR_NAME_FULL": "Blantyre Ave",
  "ADDRESS_FULL": "290 Blantyre Ave",
  "POSTAL_CODE": "M1N 2S4",
  "MUNICIPALITY": "Scarborough",
  "CITY": "Toronto",
  "GENERAL_USE_CODE": 102001,
  "LONG": -79.2838646531108,
  "LAT": 43.6851000843951
},
{
  "_id": 115,
  "OBJECTID": 115,
  "GEO_ID": 774626,
  "NAME": "BLAKE STREET JUNIOR PUBLIC SCHOOL",
  "SOURCE_ADDRESS": "21 BOULTBEE AVE",
  "SCHOOL_TYPE_DESC": "English Public",
  "ADDRESS_POINT_ID": 774626,
  "LINEAR_NAME_FULL": "Boultbee Ave",
  "ADDRESS_FULL": "21 Boultbee Ave",
  "POSTAL_CODE": "M4J 1A7",
  "MUNICIPALITY": "former Toronto",
  "CITY": "Toronto",
  "GENERAL_USE_CODE": 102001,
  "LONG": -79.3384762500832,
  "LAT": 43.6718063689636
},
{
  "_id": 117,
  "OBJECTID": 117,
  "GEO_ID": 490361,
  "NAME": "BLAYDON PUBLIC SCHOOL",
  "SOURCE_ADDRESS": "25 BLAYDON AVE",
  "SCHOOL_TYPE_DESC": "English Public",
  "ADDRESS_POINT_ID": 490361,
  "LINEAR_NAME_FULL": "Blaydon Ave",
  "ADDRESS_FULL": "25 Blaydon Ave",
  "POSTAL_CODE": "M3M 2C9",
  "MUNICIPALITY": "North York",
  "CITY": "Toronto",
  "GENERAL_USE_CODE": 102001,
  "LONG": -79.4862561391138,
  "LAT": 43.735357222836
},
{
  "_id": 118,
  "OBJECTID": 118,
  "GEO_ID": 2250071,
  "NAME": "BLESSED MARGHERITA OF CITTA DI CASTELLO CATHOLIC ELEMENTARY SCHOOL",
  "SOURCE_ADDRESS": "108 SPENVALLEY DR",
  "SCHOOL_TYPE_DESC": "English Separate",
  "ADDRESS_POINT_ID": 2250071,
  "LINEAR_NAME_FULL": "Spenvalley Dr",
  "ADDRESS_FULL": "108 Spenvalley Dr",
  "POSTAL_CODE": "M3L 1Z5",
  "MUNICIPALITY": "North York",
  "CITY": "Toronto",
  "GENERAL_USE_CODE": 102003,
  "LONG": -79.5079140443714,
  "LAT": 43.7436724724678
},
{
  "_id": 119,
  "OBJECTID": 119,
  "GEO_ID": 30012333,
  "NAME": "BLESSED PIER GIORGIO FRASSATI CATHOLIC ELEMENTARY SCHOOL",
  "SOURCE_ADDRESS": "8 SEASONS DR",
  "SCHOOL_TYPE_DESC": "English Separate",
  "ADDRESS_POINT_ID": 30012333,
  "LINEAR_NAME_FULL": "Seasons Dr",
  "ADDRESS_FULL": "8 Seasons Dr",
  "POSTAL_CODE": "M1X 1X4",
  "MUNICIPALITY": "Scarborough",
  "CITY": "Toronto",
  "GENERAL_USE_CODE": 102004,
  "LONG": -79.2327375191257,
  "LAT": 43.8298752034525
},
{
  "_id": 120,
  "OBJECTID": 120,
  "GEO_ID": 6709986,
  "NAME": "BLESSED POPE PAUL VI CATHOLIC ELEMENTARY SCHOOL",
  "SOURCE_ADDRESS": "270 LAUGHTON AVE",
  "SCHOOL_TYPE_DESC": "English Separate",
  "ADDRESS_POINT_ID": 6709986,
  "LINEAR_NAME_FULL": "Laughton Ave",
  "ADDRESS_FULL": "270 Laughton Ave",
  "POSTAL_CODE": "M6N 2X8",
  "MUNICIPALITY": "former Toronto",
  "CITY": "Toronto",
  "GENERAL_USE_CODE": 102003,
  "LONG": -79.4577930288278,
  "LAT": 43.6740129018064
},
{
  "_id": 121,
  "OBJECTID": 121,
  "GEO_ID": 7763002,
  "NAME": "BLESSED SACRAMENT CATHOLIC ELEMENTARY SCHOOL",
  "SOURCE_ADDRESS": "24 BEDFORD PARK AVE",
  "SCHOOL_TYPE_DESC": "English Separate",
  "ADDRESS_POINT_ID": 7763002,
  "LINEAR_NAME_FULL": "Bedford Park Ave",
  "ADDRESS_FULL": "24 Bedford Park Ave",
  "POSTAL_CODE": "M5M 1H9",
  "MUNICIPALITY": "former Toronto",
  "CITY": "Toronto",
  "GENERAL_USE_CODE": 102003,
  "LONG": -79.4039975153705,
  "LAT": 43.7274816103799
},
{
  "_id": 122,
  "OBJECTID": 122,
  "GEO_ID": 9602629,
  "NAME": "BLESSED TRINITY CATHOLIC ELEMENTARY SCHOOL",
  "SOURCE_ADDRESS": "3205 BAYVIEW AVE",
  "SCHOOL_TYPE_DESC": "English Separate",
  "ADDRESS_POINT_ID": 9602629,
  "LINEAR_NAME_FULL": "Bayview Ave",
  "ADDRESS_FULL": "3205 Bayview Ave",
  "POSTAL_CODE": "M2K 1G3",
  "MUNICIPALITY": "North York",
  "CITY": "Toronto",
  "GENERAL_USE_CODE": 115001,
  "LONG": -79.391826199989,
  "LAT": 43.7868975436176
},
{
  "_id": 123,
  "OBJECTID": 123,
  "GEO_ID": 306063,
  "NAME": "BLISS CARMAN SENIOR PUBLIC SCHOOL",
  "SOURCE_ADDRESS": "10 BELLAMY RD S",
  "SCHOOL_TYPE_DESC": "English Public",
  "ADDRESS_POINT_ID": 306063,
  "LINEAR_NAME_FULL": "Bellamy Rd S",
  "ADDRESS_FULL": "10 Bellamy Rd S",
  "POSTAL_CODE": "M1M 3N8",
  "MUNICIPALITY": "Scarborough",
  "CITY": "Toronto",
  "GENERAL_USE_CODE": 102001,
  "LONG": -79.2256018786147,
  "LAT": 43.732648962951
},
{
  "_id": 124,
  "OBJECTID": 124,
  "GEO_ID": 6710176,
  "NAME": "BLOOR COLLEGIATE INSTITUTE",
  "SOURCE_ADDRESS": "1141 BLOOR ST W",
  "SCHOOL_TYPE_DESC": "English Public",
  "ADDRESS_POINT_ID": 6710176,
  "LINEAR_NAME_FULL": "Bloor St W",
  "ADDRESS_FULL": "1141 Bloor St W",
  "POSTAL_CODE": "M6H 1M9",
  "MUNICIPALITY": "former Toronto",
  "CITY": "Toronto",
  "GENERAL_USE_CODE": 102002,
  "LONG": -79.4367968963581,
  "LAT": 43.65924610796
},
{
  "_id": 125,
  "OBJECTID": 125,
  "GEO_ID": 8432037,
  "NAME": "BLOORDALE MIDDLE SCHOOL",
  "SOURCE_ADDRESS": "10 TOLEDO RD",
  "SCHOOL_TYPE_DESC": "English Public",
  "ADDRESS_POINT_ID": 8432037,
  "LINEAR_NAME_FULL": "Toledo Rd",
  "ADDRESS_FULL": "10 Toledo Rd",
  "POSTAL_CODE": "M9C 2H3",
  "MUNICIPALITY": "Etobicoke",
  "CITY": "Toronto",
  "GENERAL_USE_CODE": 106007,
  "LONG": -79.5719465300651,
  "LAT": 43.6391456489153
},
{
  "_id": 126,
  "OBJECTID": 126,
  "GEO_ID": 8731366,
  "NAME": "BLOORLEA MIDDLE SCHOOL",
  "SOURCE_ADDRESS": "4050 BLOOR ST W",
  "SCHOOL_TYPE_DESC": "English Public",
  "ADDRESS_POINT_ID": 8731366,
  "LINEAR_NAME_FULL": "Bloor St W",
  "ADDRESS_FULL": "4050 Bloor St W",
  "POSTAL_CODE": "M9B 1M5",
  "MUNICIPALITY": "Etobicoke",
  "CITY": "Toronto",
  "GENERAL_USE_CODE": 102001,
  "LONG": -79.5556754935908,
  "LAT": 43.6376529320238
},
{
  "_id": 127,
  "OBJECTID": 127,
  "GEO_ID": 30054504,
  "NAME": "BLUE GENE EDUCATION",
  "SOURCE_ADDRESS": "11A GLEN WATFORD DR",
  "SCHOOL_TYPE_DESC": "Private",
  "ADDRESS_POINT_ID": 30054504,
  "LINEAR_NAME_FULL": "Glen Watford Dr",
  "ADDRESS_FULL": "11A Glen Watford Dr",
  "POSTAL_CODE": "M1S 2B8",
  "MUNICIPALITY": "Scarborough",
  "CITY": "Toronto",
  "GENERAL_USE_CODE": 115001,
  "LONG": -79.2756210517415,
  "LAT": 43.7866780963874
},
{
  "_id": 128,
  "OBJECTID": 128,
  "GEO_ID": 13494887,
  "NAME": "BLYTH ACADEMY SCHOOL - DOWNSVIEW PARK",
  "SOURCE_ADDRESS": "75 CARL HALL RD",
  "SCHOOL_TYPE_DESC": "Private",
  "ADDRESS_POINT_ID": 13494887,
  "LINEAR_NAME_FULL": "Carl Hall Rd",
  "ADDRESS_FULL": "75 Carl Hall Rd",
  "POSTAL_CODE": "M3K 2B9",
  "MUNICIPALITY": "North York",
  "CITY": "Toronto",
  "GENERAL_USE_CODE": 110001,
  "LONG": -79.4750974058962,
  "LAT": 43.7476137521075
},
{
  "_id": 129,
  "OBJECTID": 129,
  "GEO_ID": 8265336,
  "NAME": "BLYTH ACADEMY SCHOOL - ETOBICOKE",
  "SOURCE_ADDRESS": "2489 BLOOR ST W",
  "SCHOOL_TYPE_DESC": "Private",
  "ADDRESS_POINT_ID": 8265336,
  "LINEAR_NAME_FULL": "Bloor St W",
  "ADDRESS_FULL": "2489 Bloor St W",
  "POSTAL_CODE": "M6S 1R6",
  "MUNICIPALITY": "former Toronto",
  "CITY": "Toronto",
  "GENERAL_USE_CODE": 115001,
  "LONG": -79.4865438361652,
  "LAT": 43.6476318294668
},
{
  "_id": 130,
  "OBJECTID": 130,
  "GEO_ID": 8566068,
  "NAME": "BLYTH ACADEMY SCHOOL - LAWRENCE",
  "SOURCE_ADDRESS": "2660 YONGE ST",
  "SCHOOL_TYPE_DESC": "Private",
  "ADDRESS_POINT_ID": 8566068,
  "LINEAR_NAME_FULL": "Yonge St",
  "ADDRESS_FULL": "2660 Yonge St",
  "POSTAL_CODE": "M4P 2J5",
  "MUNICIPALITY": "former Toronto",
  "CITY": "Toronto",
  "GENERAL_USE_CODE": 115001,
  "LONG": -79.4005921361057,
  "LAT": 43.7160130809748
},
{
  "_id": 131,
  "OBJECTID": 131,
  "GEO_ID": 13502901,
  "NAME": "BLYTH ACADEMY SCHOOL - YORKVILLE",
  "SOURCE_ADDRESS": "85 ST NICHOLAS ST",
  "SCHOOL_TYPE_DESC": "Private",
  "ADDRESS_POINT_ID": 13502901,
  "LINEAR_NAME_FULL": "St Nicholas St",
  "ADDRESS_FULL": "85 St Nicholas St",
  "POSTAL_CODE": "M4Y 1W8",
  "MUNICIPALITY": "former Toronto",
  "CITY": "Toronto",
  "GENERAL_USE_CODE": 115001,
  "LONG": -79.3867163432161,
  "LAT": 43.6682745249205
},
{
  "_id": 132,
  "OBJECTID": 132,
  "GEO_ID": 7754014,
  "NAME": "BLYTHWOOD JUNIOR PUBLIC SCHOOL",
  "SOURCE_ADDRESS": "2 STRATHGOWAN CRES",
  "SCHOOL_TYPE_DESC": "English Public",
  "ADDRESS_POINT_ID": 7754014,
  "LINEAR_NAME_FULL": "Strathgowan Cres",
  "ADDRESS_FULL": "2 Strathgowan Cres",
  "POSTAL_CODE": "M4N 2Z5",
  "MUNICIPALITY": "former Toronto",
  "CITY": "Toronto",
  "GENERAL_USE_CODE": 102001,
  "LONG": -79.3895057084414,
  "LAT": 43.7199314988808
},
{
  "_id": 133,
  "OBJECTID": 133,
  "GEO_ID": 20138696,
  "NAME": "BNEI AKIVA SCHOOL - ULPANAT OROT FOR GIRLS",
  "SOURCE_ADDRESS": "45 CANYON AVE",
  "SCHOOL_TYPE_DESC": "Private",
  "ADDRESS_POINT_ID": 20138696,
  "LINEAR_NAME_FULL": "Canyon Ave",
  "ADDRESS_FULL": "45 Canyon Ave",
  "POSTAL_CODE": "M3H 3S4",
  "MUNICIPALITY": "North York",
  "CITY": "Toronto",
  "GENERAL_USE_CODE": 102005,
  "LONG": -79.4382145878534,
  "LAT": 43.7582180659533
},
{
  "_id": 134,
  "OBJECTID": 134,
  "GEO_ID": 9011164,
  "NAME": "BNOS BAIS YAAKOV SCHOOL FOR GIRLS",
  "SOURCE_ADDRESS": "2949 BATHURST ST",
  "SCHOOL_TYPE_DESC": "Private",
  "ADDRESS_POINT_ID": 9011164,
  "LINEAR_NAME_FULL": "Bathurst St",
  "ADDRESS_FULL": "2949 Bathurst St",
  "POSTAL_CODE": "M6B 3B2",
  "MUNICIPALITY": "North York",
  "CITY": "Toronto",
  "GENERAL_USE_CODE": 115001,
  "LONG": -79.4288203417634,
  "LAT": 43.7165295830243
},
{
  "_id": 135,
  "OBJECTID": 135,
  "GEO_ID": 13973547,
  "NAME": "BNOS CHAYA",
  "SOURCE_ADDRESS": "4116 BATHURST ST",
  "SCHOOL_TYPE_DESC": "Private",
  "ADDRESS_POINT_ID": 13973547,
  "LINEAR_NAME_FULL": "Bathurst St",
  "ADDRESS_FULL": "4116 Bathurst St",
  "POSTAL_CODE": "M3H 3P2",
  "MUNICIPALITY": "North York",
  "CITY": "Toronto",
  "GENERAL_USE_CODE": 115001,
  "LONG": -79.4365869259905,
  "LAT": 43.7464156653035
},
{
  "_id": 136,
  "OBJECTID": 136,
  "GEO_ID": 826229,
  "NAME": "BON BERGER CATHOLIC ELEMENTARY SCHOOL",
  "SOURCE_ADDRESS": "343 JONES AVE",
  "SCHOOL_TYPE_DESC": "French Separate",
  "ADDRESS_POINT_ID": 826229,
  "LINEAR_NAME_FULL": "Jones Ave",
  "ADDRESS_FULL": "343 Jones Ave",
  "POSTAL_CODE": "M4J 3G4",
  "MUNICIPALITY": "former Toronto",
  "CITY": "Toronto",
  "GENERAL_USE_CODE": 102003,
  "LONG": -79.3366206236931,
  "LAT": 43.6725640377998
},
{
  "_id": 137,
  "OBJECTID": 137,
  "GEO_ID": 308612,
  "NAME": "BOND ACADEMY SCHOOL",
  "SOURCE_ADDRESS": "1500 BIRCHMOUNT RD",
  "SCHOOL_TYPE_DESC": "Private",
  "ADDRESS_POINT_ID": 308612,
  "LINEAR_NAME_FULL": "Birchmount Rd",
  "ADDRESS_FULL": "1500 Birchmount Rd",
  "POSTAL_CODE": "M1P 2G5",
  "MUNICIPALITY": "Scarborough",
  "CITY": "Toronto",
  "GENERAL_USE_CODE": 113001,
  "LONG": -79.2903117142674,
  "LAT": 43.756523216951
},
{
  "_id": 138,
  "OBJECTID": 138,
  "GEO_ID": 6361762,
  "NAME": "BOWMORE ROAD JUNIOR & SENIOR PUBLIC SCHOOL",
  "SOURCE_ADDRESS": "80 BOWMORE RD",
  "SCHOOL_TYPE_DESC": "English Public",
  "ADDRESS_POINT_ID": 6361762,
  "LINEAR_NAME_FULL": "Bowmore Rd",
  "ADDRESS_FULL": "80 Bowmore Rd",
  "POSTAL_CODE": "M4L 3J2",
  "MUNICIPALITY": "former Toronto",
  "CITY": "Toronto",
  "GENERAL_USE_CODE": 102001,
  "LONG": -79.3144917153579,
  "LAT": 43.676063664796
},
{
  "_id": 139,
  "OBJECTID": 139,
  "GEO_ID": 1003702,
  "NAME": "BOYS LEADERSHIP ACADEMY",
  "SOURCE_ADDRESS": "45 GOLFDOWN DR",
  "SCHOOL_TYPE_DESC": "English Public",
  "ADDRESS_POINT_ID": 1003702,
  "LINEAR_NAME_FULL": "Golfdown Dr",
  "ADDRESS_FULL": "45 Golfdown Dr",
  "POSTAL_CODE": "M9W 2H8",
  "MUNICIPALITY": "Etobicoke",
  "CITY": "Toronto",
  "GENERAL_USE_CODE": 106007,
  "LONG": -79.5521137885613,
  "LAT": 43.722227297768
},
{
  "_id": 140,
  "OBJECTID": 140,
  "GEO_ID": 1035925,
  "NAME": "BRAEBURN JUNIOR SCHOOL",
  "SOURCE_ADDRESS": "15 TANDRIDGE CRES",
  "SCHOOL_TYPE_DESC": "English Public",
  "ADDRESS_POINT_ID": 1035925,
  "LINEAR_NAME_FULL": "Tandridge Cres",
  "ADDRESS_FULL": "15 Tandridge Cres",
  "POSTAL_CODE": "M9W 2N8",
  "MUNICIPALITY": "Etobicoke",
  "CITY": "Toronto",
  "GENERAL_USE_CODE": 102001,
  "LONG": -79.5488638133372,
  "LAT": 43.7280298273892
},
{
  "_id": 142,
  "OBJECTID": 142,
  "GEO_ID": 801469,
  "NAME": "BRANKSOME HALL GIRLS",
  "SOURCE_ADDRESS": "10 ELM AVE",
  "SCHOOL_TYPE_DESC": "Private",
  "ADDRESS_POINT_ID": 801469,
  "LINEAR_NAME_FULL": "Elm Ave",
  "ADDRESS_FULL": "10 Elm Ave",
  "POSTAL_CODE": "M4W 1N4",
  "MUNICIPALITY": "former Toronto",
  "CITY": "Toronto",
  "GENERAL_USE_CODE": 102005,
  "LONG": -79.3798154376982,
  "LAT": 43.675062372312
},
{
  "_id": 143,
  "OBJECTID": 143,
  "GEO_ID": 565242,
  "NAME": "BREBEUF COLLEGE SCHOOL",
  "SOURCE_ADDRESS": "211 STEELES AVE E",
  "SCHOOL_TYPE_DESC": "English Separate",
  "ADDRESS_POINT_ID": 565242,
  "LINEAR_NAME_FULL": "Steeles Ave E",
  "ADDRESS_FULL": "211 Steeles Ave E",
  "POSTAL_CODE": "M2M 3Y6",
  "MUNICIPALITY": "North York",
  "CITY": "Toronto",
  "GENERAL_USE_CODE": 102004,
  "LONG": -79.4026251522927,
  "LAT": 43.8002282400109
},
{
  "_id": 141,
  "OBJECTID": 141,
  "GEO_ID": 7795750,
  "NAME": "BRAEMAR COLLEGE PRIVATE SECONDARY",
  "SOURCE_ADDRESS": "229 COLLEGE ST",
  "SCHOOL_TYPE_DESC": "Private",
  "ADDRESS_POINT_ID": 7795750,
  "LINEAR_NAME_FULL": "College St",
  "ADDRESS_FULL": "229 College St",
  "POSTAL_CODE": "M5T 1R4",
  "MUNICIPALITY": "former Toronto",
  "CITY": "Toronto",
  "GENERAL_USE_CODE": 104008,
  "LONG": -79.3975131902069,
  "LAT": 43.6581269361942
},
{
  "_id": 145,
  "OBJECTID": 145,
  "GEO_ID": 8344927,
  "NAME": "BRIARCREST JUNIOR SCHOOL",
  "SOURCE_ADDRESS": "60 WELLESWORTH DR",
  "SCHOOL_TYPE_DESC": "English Public",
  "ADDRESS_POINT_ID": 8344927,
  "LINEAR_NAME_FULL": "Wellesworth Dr",
  "ADDRESS_FULL": "60 Wellesworth Dr",
  "POSTAL_CODE": "M9C 4R3",
  "MUNICIPALITY": "Etobicoke",
  "CITY": "Toronto",
  "GENERAL_USE_CODE": 102001,
  "LONG": -79.5800752804407,
  "LAT": 43.6664657716455
},
{
  "_id": 146,
  "OBJECTID": 146,
  "GEO_ID": 312084,
  "NAME": "BRIDLEWOOD JUNIOR PUBLIC SCHOOL",
  "SOURCE_ADDRESS": "60 BRIDLEWOOD BLVD",
  "SCHOOL_TYPE_DESC": "English Public",
  "ADDRESS_POINT_ID": 312084,
  "LINEAR_NAME_FULL": "Bridlewood Blvd",
  "ADDRESS_FULL": "60 Bridlewood Blvd",
  "POSTAL_CODE": "M1T 1P7",
  "MUNICIPALITY": "Scarborough",
  "CITY": "Toronto",
  "GENERAL_USE_CODE": 102001,
  "LONG": -79.3150953883817,
  "LAT": 43.7807962711677
},
{
  "_id": 153,
  "OBJECTID": 153,
  "GEO_ID": 493354,
  "NAME": "BROOKHAVEN PUBLIC SCHOOL",
  "SOURCE_ADDRESS": "70 BROOKHAVEN DR",
  "SCHOOL_TYPE_DESC": "English Public",
  "ADDRESS_POINT_ID": 493354,
  "LINEAR_NAME_FULL": "Brookhaven Dr",
  "ADDRESS_FULL": "70 Brookhaven Dr",
  "POSTAL_CODE": "M6M 4N8",
  "MUNICIPALITY": "North York",
  "CITY": "Toronto",
  "GENERAL_USE_CODE": 102001,
  "LONG": -79.4956943989555,
  "LAT": 43.7025063022277
},
{
  "_id": 154,
  "OBJECTID": 154,
  "GEO_ID": 536834,
  "NAME": "BROOKLYN COLLEGE SECONDARY SCHOOL",
  "SOURCE_ADDRESS": "150 LESMILL RD",
  "SCHOOL_TYPE_DESC": "Private",
  "ADDRESS_POINT_ID": 536834,
  "LINEAR_NAME_FULL": "Lesmill Rd",
  "ADDRESS_FULL": "150 Lesmill Rd",
  "POSTAL_CODE": "M3B 2T5",
  "MUNICIPALITY": "North York",
  "CITY": "Toronto",
  "GENERAL_USE_CODE": 113001,
  "LONG": -79.3586470250663,
  "LAT": 43.7593992803488
},
{
  "_id": 155,
  "OBJECTID": 155,
  "GEO_ID": 6242368,
  "NAME": "BROOKMILL BOULEVARD JUNIOR PUBLIC SCHOOL",
  "SOURCE_ADDRESS": "25 BROOKMILL BLVD",
  "SCHOOL_TYPE_DESC": "English Public",
  "ADDRESS_POINT_ID": 6242368,
  "LINEAR_NAME_FULL": "Brookmill Blvd",
  "ADDRESS_FULL": "25 Brookmill Blvd",
  "POSTAL_CODE": "M1W 2L5",
  "MUNICIPALITY": "Scarborough",
  "CITY": "Toronto",
  "GENERAL_USE_CODE": 102001,
  "LONG": -79.3148680045935,
  "LAT": 43.80122038284
},
{
  "_id": 156,
  "OBJECTID": 156,
  "GEO_ID": 14248664,
  "NAME": "BROOKSIDE PUBLIC SCHOOL",
  "SOURCE_ADDRESS": "75 OASIS BLVD",
  "SCHOOL_TYPE_DESC": "English Public",
  "ADDRESS_POINT_ID": 14248664,
  "LINEAR_NAME_FULL": "Oasis Blvd",
  "ADDRESS_FULL": "75 Oasis Blvd",
  "POSTAL_CODE": "M1X 0A3",
  "MUNICIPALITY": "Scarborough",
  "CITY": "Toronto",
  "GENERAL_USE_CODE": 102001,
  "LONG": -79.2338532994675,
  "LAT": 43.8303652064155
},
{
  "_id": 144,
  "OBJECTID": 144,
  "GEO_ID": 11467213,
  "NAME": "BRIAN PUBLIC SCHOOL",
  "SOURCE_ADDRESS": "95 BRIAN DR",
  "SCHOOL_TYPE_DESC": "English Public",
  "ADDRESS_POINT_ID": 11467213,
  "LINEAR_NAME_FULL": "Brian Dr",
  "ADDRESS_FULL": "95 Brian Dr",
  "POSTAL_CODE": "M2J 3Y6",
  "MUNICIPALITY": "North York",
  "CITY": "Toronto",
  "GENERAL_USE_CODE": 102001,
  "LONG": -79.331933544035,
  "LAT": 43.7824531904325
},
{
  "_id": 157,
  "OBJECTID": 157,
  "GEO_ID": 531083,
  "NAME": "BROOKVIEW LINC",
  "SOURCE_ADDRESS": "4505 JANE ST",
  "SCHOOL_TYPE_DESC": "English Public",
  "ADDRESS_POINT_ID": 531083,
  "LINEAR_NAME_FULL": "Jane St",
  "ADDRESS_FULL": "4505 Jane St",
  "POSTAL_CODE": "M3N 2K7",
  "MUNICIPALITY": "North York",
  "CITY": "Toronto",
  "GENERAL_USE_CODE": 102001,
  "LONG": -79.5172466551502,
  "LAT": 43.7674572380872
},
{
  "_id": 158,
  "OBJECTID": 158,
  "GEO_ID": 531083,
  "NAME": "BROOKVIEW MIDDLE SCHOOL",
  "SOURCE_ADDRESS": "4505 JANE ST",
  "SCHOOL_TYPE_DESC": "English Public",
  "ADDRESS_POINT_ID": 531083,
  "LINEAR_NAME_FULL": "Jane St",
  "ADDRESS_FULL": "4505 Jane St",
  "POSTAL_CODE": "M3N 2K7",
  "MUNICIPALITY": "North York",
  "CITY": "Toronto",
  "GENERAL_USE_CODE": 102001,
  "LONG": -79.5172466551502,
  "LAT": 43.7674572380872
},
{
  "_id": 159,
  "OBJECTID": 159,
  "GEO_ID": 7992855,
  "NAME": "BROWN JUNIOR PUBLIC SCHOOL",
  "SOURCE_ADDRESS": "454 AVENUE RD",
  "SCHOOL_TYPE_DESC": "English Public",
  "ADDRESS_POINT_ID": 7992855,
  "LINEAR_NAME_FULL": "Avenue Rd",
  "ADDRESS_FULL": "454 Avenue Rd",
  "POSTAL_CODE": "M4V 2J1",
  "MUNICIPALITY": "former Toronto",
  "CITY": "Toronto",
  "GENERAL_USE_CODE": 102001,
  "LONG": -79.4013122747142,
  "LAT": 43.6849129181957
},
{
  "_id": 160,
  "OBJECTID": 160,
  "GEO_ID": 8392356,
  "NAME": "BRUCE JUNIOR PUBLIC SCHOOL",
  "SOURCE_ADDRESS": "51 LARCHMOUNT AVE",
  "SCHOOL_TYPE_DESC": "English Public",
  "ADDRESS_POINT_ID": 8392356,
  "LINEAR_NAME_FULL": "Larchmount Ave",
  "ADDRESS_FULL": "51 Larchmount Ave",
  "POSTAL_CODE": "M4M 2Y6",
  "MUNICIPALITY": "former Toronto",
  "CITY": "Toronto",
  "GENERAL_USE_CODE": 102001,
  "LONG": -79.3333360558731,
  "LAT": 43.6610358159785
},
{
  "_id": 162,
  "OBJECTID": 162,
  "GEO_ID": 6765660,
  "NAME": "BURNHAMTHORPE COLLEGIATE & ADULT LEARNING CENTRE",
  "SOURCE_ADDRESS": "500 THE EAST MALL",
  "SCHOOL_TYPE_DESC": "English Public",
  "ADDRESS_POINT_ID": 6765660,
  "LINEAR_NAME_FULL": "The East Mall",
  "ADDRESS_FULL": "500 The East Mall",
  "POSTAL_CODE": "M9B 2C4",
  "MUNICIPALITY": "Etobicoke",
  "CITY": "Toronto",
  "GENERAL_USE_CODE": 102002,
  "LONG": -79.5616948758766,
  "LAT": 43.6491679256634
},
{
  "_id": 161,
  "OBJECTID": 161,
  "GEO_ID": 314022,
  "NAME": "BUCHANAN PUBLIC SCHOOL",
  "SOURCE_ADDRESS": "4 BUCANNAN RD",
  "SCHOOL_TYPE_DESC": "English Public",
  "ADDRESS_POINT_ID": 314022,
  "LINEAR_NAME_FULL": "Bucannan Rd",
  "ADDRESS_FULL": "4 Bucannan Rd",
  "POSTAL_CODE": "M1R 3V3",
  "MUNICIPALITY": "Scarborough",
  "CITY": "Toronto",
  "GENERAL_USE_CODE": 102001,
  "LONG": -79.2999282686155,
  "LAT": 43.7514123659806
},
{
  "_id": 150,
  "OBJECTID": 150,
  "GEO_ID": 7515119,
  "NAME": "BROADACRES JUNIOR SCHOOL",
  "SOURCE_ADDRESS": "45 CRENDON DR",
  "SCHOOL_TYPE_DESC": "English Public",
  "ADDRESS_POINT_ID": 7515119,
  "LINEAR_NAME_FULL": "Crendon Dr",
  "ADDRESS_FULL": "45 Crendon Dr",
  "POSTAL_CODE": "M9C 3G6",
  "MUNICIPALITY": "Etobicoke",
  "CITY": "Toronto",
  "GENERAL_USE_CODE": 102001,
  "LONG": -79.5720207319543,
  "LAT": 43.6480667176351
},
{
  "_id": 147,
  "OBJECTID": 147,
  "GEO_ID": 14069873,
  "NAME": "BRIGHT START ACADEMY",
  "SOURCE_ADDRESS": "4630 DUFFERIN ST",
  "SCHOOL_TYPE_DESC": "Private",
  "ADDRESS_POINT_ID": 14069873,
  "LINEAR_NAME_FULL": "Dufferin St",
  "ADDRESS_FULL": "4630 Dufferin St",
  "POSTAL_CODE": "M3H 5S4",
  "MUNICIPALITY": "North York",
  "CITY": "Toronto",
  "GENERAL_USE_CODE": 115001,
  "LONG": -79.4682899064453,
  "LAT": 43.7732445761783
},
{
  "_id": 148,
  "OBJECTID": 148,
  "GEO_ID": 4709520,
  "NAME": "BRIGHTON",
  "SOURCE_ADDRESS": "240 THE DONWAY W",
  "SCHOOL_TYPE_DESC": "Private",
  "ADDRESS_POINT_ID": 4709520,
  "LINEAR_NAME_FULL": "The Donway W",
  "ADDRESS_FULL": "240 The Donway W",
  "POSTAL_CODE": "M3B 2V8",
  "MUNICIPALITY": "North York",
  "CITY": "Toronto",
  "GENERAL_USE_CODE": 100001,
  "LONG": -79.3470100130127,
  "LAT": 43.7393068510598
},
{
  "_id": 149,
  "OBJECTID": 149,
  "GEO_ID": 313306,
  "NAME": "BRIMWOOD BOULEVARD JUNIOR PUBLIC SCHOOL",
  "SOURCE_ADDRESS": "151 BRIMWOOD BLVD",
  "SCHOOL_TYPE_DESC": "English Public",
  "ADDRESS_POINT_ID": 313306,
  "LINEAR_NAME_FULL": "Brimwood Blvd",
  "ADDRESS_FULL": "151 Brimwood Blvd",
  "POSTAL_CODE": "M1V 1E5",
  "MUNICIPALITY": "Scarborough",
  "CITY": "Toronto",
  "GENERAL_USE_CODE": 102001,
  "LONG": -79.2740896574429,
  "LAT": 43.8116998848004
},
{
  "_id": 151,
  "OBJECTID": 151,
  "GEO_ID": 492477,
  "NAME": "BROADLANDS PUBLIC SCHOOL",
  "SOURCE_ADDRESS": "106 BROADLANDS BLVD",
  "SCHOOL_TYPE_DESC": "English Public",
  "ADDRESS_POINT_ID": 492477,
  "LINEAR_NAME_FULL": "Broadlands Blvd",
  "ADDRESS_FULL": "106 Broadlands Blvd",
  "POSTAL_CODE": "M3A 1J7",
  "MUNICIPALITY": "North York",
  "CITY": "Toronto",
  "GENERAL_USE_CODE": 102001,
  "LONG": -79.316462271329,
  "LAT": 43.7457277227854
},
{
  "_id": 169,
  "OBJECTID": 169,
  "GEO_ID": 8837786,
  "NAME": "CANAAN GLOBAL ACADEMY",
  "SOURCE_ADDRESS": "32 KERN RD",
  "SCHOOL_TYPE_DESC": "Private",
  "ADDRESS_POINT_ID": 8837786,
  "LINEAR_NAME_FULL": "Kern Rd",
  "ADDRESS_FULL": "32 Kern Rd",
  "POSTAL_CODE": "M3B 1T1",
  "MUNICIPALITY": "North York",
  "CITY": "Toronto",
  "GENERAL_USE_CODE": 115001,
  "LONG": -79.3506864852167,
  "LAT": 43.7499003413721
},
{
  "_id": 170,
  "OBJECTID": 170,
  "GEO_ID": 30064074,
  "NAME": "CANADA SPRUCEVILLE ACADEMY",
  "SOURCE_ADDRESS": "716 GORDON BAKER RD",
  "SCHOOL_TYPE_DESC": "Private",
  "ADDRESS_POINT_ID": 30064074,
  "LINEAR_NAME_FULL": "Gordon Baker Rd",
  "ADDRESS_FULL": "716 Gordon Baker Rd",
  "POSTAL_CODE": "M2H 3B4",
  "MUNICIPALITY": "North York",
  "CITY": "Toronto",
  "GENERAL_USE_CODE": 112001,
  "LONG": -79.3421386188846,
  "LAT": 43.8109545485955
},
{
  "_id": 171,
  "OBJECTID": 171,
  "GEO_ID": 481933,
  "NAME": "CANADIAN ADVANCED SENIOR HIGH",
  "SOURCE_ADDRESS": "217 ALFRED AVE",
  "SCHOOL_TYPE_DESC": "Private",
  "ADDRESS_POINT_ID": 481933,
  "LINEAR_NAME_FULL": "Alfred Ave",
  "ADDRESS_FULL": "217 Alfred Ave",
  "POSTAL_CODE": "M2N 3J7",
  "MUNICIPALITY": "North York",
  "CITY": "Toronto",
  "GENERAL_USE_CODE": 100001,
  "LONG": -79.3955166823733,
  "LAT": 43.7681894473727
},
{
  "_id": 172,
  "OBJECTID": 172,
  "GEO_ID": 3369840,
  "NAME": "CANADIAN IMPERIAL ACADEMY",
  "SOURCE_ADDRESS": "3850 FINCH AVE E",
  "SCHOOL_TYPE_DESC": "Private",
  "ADDRESS_POINT_ID": 3369840,
  "LINEAR_NAME_FULL": "Finch Ave E",
  "ADDRESS_FULL": "3850 Finch Ave E",
  "POSTAL_CODE": "M1T 3T6",
  "MUNICIPALITY": "Scarborough",
  "CITY": "Toronto",
  "GENERAL_USE_CODE": 101007,
  "LONG": -79.3006276774292,
  "LAT": 43.8006429947089
},
{
  "_id": 173,
  "OBJECTID": 173,
  "GEO_ID": 9668636,
  "NAME": "CANADIAN INTERNATIONAL COLLEGE",
  "SOURCE_ADDRESS": "2347 KENNEDY RD",
  "SCHOOL_TYPE_DESC": "Private",
  "ADDRESS_POINT_ID": 9668636,
  "LINEAR_NAME_FULL": "Kennedy Rd",
  "ADDRESS_FULL": "2347 Kennedy Rd",
  "POSTAL_CODE": "M1T 3T8",
  "MUNICIPALITY": "Scarborough",
  "CITY": "Toronto",
  "GENERAL_USE_CODE": 115001,
  "LONG": -79.2882892370706,
  "LAT": 43.7840565219055
},
{
  "_id": 174,
  "OBJECTID": 174,
  "GEO_ID": 7794398,
  "NAME": "CANADIAN MARTYRS CATHOLIC ELEMENTARY SCHOOL",
  "SOURCE_ADDRESS": "520 PLAINS RD",
  "SCHOOL_TYPE_DESC": "English Separate",
  "ADDRESS_POINT_ID": 7794398,
  "LINEAR_NAME_FULL": "Plains Rd",
  "ADDRESS_FULL": "520 Plains Rd",
  "POSTAL_CODE": "M4C 2Z1",
  "MUNICIPALITY": "East York",
  "CITY": "Toronto",
  "GENERAL_USE_CODE": 102003,
  "LONG": -79.3193386362478,
  "LAT": 43.6981999203505
},
{
  "_id": 175,
  "OBJECTID": 175,
  "GEO_ID": 14129930,
  "NAME": "CANADIAN TAMIL ACADEMY",
  "SOURCE_ADDRESS": "8 MILNER AVE",
  "SCHOOL_TYPE_DESC": "Private",
  "ADDRESS_POINT_ID": 14129930,
  "LINEAR_NAME_FULL": "Milner Ave",
  "ADDRESS_FULL": "8 Milner Ave",
  "POSTAL_CODE": "M1S 3P8",
  "MUNICIPALITY": "Scarborough",
  "CITY": "Toronto",
  "GENERAL_USE_CODE": 112001,
  "LONG": -79.2560647526698,
  "LAT": 43.7859309725289
},
{
  "_id": 176,
  "OBJECTID": 176,
  "GEO_ID": 999333,
  "NAME": "CAN-AIM HIGH SCHOOL",
  "SOURCE_ADDRESS": "2 ELMHURST DR",
  "SCHOOL_TYPE_DESC": "Private",
  "ADDRESS_POINT_ID": 999333,
  "LINEAR_NAME_FULL": "Elmhurst Dr",
  "ADDRESS_FULL": "2 Elmhurst Dr",
  "POSTAL_CODE": "M9W 2J3",
  "MUNICIPALITY": "Etobicoke",
  "CITY": "Toronto",
  "GENERAL_USE_CODE": 100001,
  "LONG": -79.551444275464,
  "LAT": 43.7251340041367
},
{
  "_id": 177,
  "OBJECTID": 177,
  "GEO_ID": 13502678,
  "NAME": "CANNY SCHOOL",
  "SOURCE_ADDRESS": "250 CONSUMERS RD",
  "SCHOOL_TYPE_DESC": "Private",
  "ADDRESS_POINT_ID": 13502678,
  "LINEAR_NAME_FULL": "Consumers Rd",
  "ADDRESS_FULL": "250 Consumers Rd",
  "POSTAL_CODE": "M2J 4V6",
  "MUNICIPALITY": "North York",
  "CITY": "Toronto",
  "GENERAL_USE_CODE": 112001,
  "LONG": -79.3308571752924,
  "LAT": 43.7718171830808
},
{
  "_id": 178,
  "OBJECTID": 178,
  "GEO_ID": 9135228,
  "NAME": "CARDINAL CARTER ACADEMY FOR THE ARTS",
  "SOURCE_ADDRESS": "36 GREENFIELD AVE",
  "SCHOOL_TYPE_DESC": "English Separate",
  "ADDRESS_POINT_ID": 9135228,
  "LINEAR_NAME_FULL": "Greenfield Ave",
  "ADDRESS_FULL": "36 Greenfield Ave",
  "POSTAL_CODE": "M2N 3C8",
  "MUNICIPALITY": "North York",
  "CITY": "Toronto",
  "GENERAL_USE_CODE": 102004,
  "LONG": -79.4097615824432,
  "LAT": 43.7640950103093
},
{
  "_id": 179,
  "OBJECTID": 179,
  "GEO_ID": 365821,
  "NAME": "CARDINAL LEGER CATHOLIC ELEMENTARY SCHOOL",
  "SOURCE_ADDRESS": "600 MORRISH RD",
  "SCHOOL_TYPE_DESC": "English Separate",
  "ADDRESS_POINT_ID": 365821,
  "LINEAR_NAME_FULL": "Morrish Rd",
  "ADDRESS_FULL": "600 Morrish Rd",
  "POSTAL_CODE": "M1C 4Y1",
  "MUNICIPALITY": "Scarborough",
  "CITY": "Toronto",
  "GENERAL_USE_CODE": 102003,
  "LONG": -79.1754616226425,
  "LAT": 43.7932879519401
},
{
  "_id": 180,
  "OBJECTID": 180,
  "GEO_ID": 7974726,
  "NAME": "CAREERQUEST - TORONTO",
  "SOURCE_ADDRESS": "129 YORKVILLE AVE",
  "SCHOOL_TYPE_DESC": "Private",
  "ADDRESS_POINT_ID": 7974726,
  "LINEAR_NAME_FULL": "Yorkville Ave",
  "ADDRESS_FULL": "129 Yorkville Ave",
  "POSTAL_CODE": "M5R 1C4",
  "MUNICIPALITY": "former Toronto",
  "CITY": "Toronto",
  "GENERAL_USE_CODE": 104008,
  "LONG": -79.3935194605903,
  "LAT": 43.6704891897759
},
{
  "_id": 181,
  "OBJECTID": 181,
  "GEO_ID": 8714071,
  "NAME": "CARLETON VILLAGE JUNIOR & SENIOR PUBLIC SCHOOL",
  "SOURCE_ADDRESS": "315 OSLER ST",
  "SCHOOL_TYPE_DESC": "English Public",
  "ADDRESS_POINT_ID": 8714071,
  "LINEAR_NAME_FULL": "Osler St",
  "ADDRESS_FULL": "315 Osler St",
  "POSTAL_CODE": "M6N 2Z4",
  "MUNICIPALITY": "former Toronto",
  "CITY": "Toronto",
  "GENERAL_USE_CODE": 102002,
  "LONG": -79.4600288033669,
  "LAT": 43.6723528079383
},
{
  "_id": 182,
  "OBJECTID": 182,
  "GEO_ID": 497128,
  "NAME": "CASSANDRA PUBLIC SCHOOL",
  "SOURCE_ADDRESS": "45 CASSANDRA BLVD",
  "SCHOOL_TYPE_DESC": "English Public",
  "ADDRESS_POINT_ID": 497128,
  "LINEAR_NAME_FULL": "Cassandra Blvd",
  "ADDRESS_FULL": "45 Cassandra Blvd",
  "POSTAL_CODE": "M3A 1S5",
  "MUNICIPALITY": "North York",
  "CITY": "Toronto",
  "GENERAL_USE_CODE": 102001,
  "LONG": -79.3289014753509,
  "LAT": 43.7484250053493
},
{
  "_id": 183,
  "OBJECTID": 183,
  "GEO_ID": 992851,
  "NAME": "CASTLEBAR Junior School",
  "SOURCE_ADDRESS": "70 CHARTWELL RD",
  "SCHOOL_TYPE_DESC": "English Public",
  "ADDRESS_POINT_ID": 992851,
  "LINEAR_NAME_FULL": "Chartwell Rd",
  "ADDRESS_FULL": "70 Chartwell Rd",
  "POSTAL_CODE": "M8Z 4G6",
  "MUNICIPALITY": "Etobicoke",
  "CITY": "Toronto",
  "GENERAL_USE_CODE": 104008,
  "LONG": -79.5137942125371,
  "LAT": 43.6305564879895
},
{
  "_id": 152,
  "OBJECTID": 152,
  "GEO_ID": 9780839,
  "NAME": "BROCK JUNIOR PUBLIC SCHOOL",
  "SOURCE_ADDRESS": "93 MARGUERETTA ST",
  "SCHOOL_TYPE_DESC": "English Public",
  "ADDRESS_POINT_ID": 9780839,
  "LINEAR_NAME_FULL": "Margueretta St",
  "ADDRESS_FULL": "93 Margueretta St",
  "POSTAL_CODE": "M6H 3S4",
  "MUNICIPALITY": "former Toronto",
  "CITY": "Toronto",
  "GENERAL_USE_CODE": 102001,
  "LONG": -79.4378441314772,
  "LAT": 43.6530496924269
},
{
  "_id": 163,
  "OBJECTID": 163,
  "GEO_ID": 314663,
  "NAME": "BURROWS HALL JUNIOR PUBLIC SCHOOL",
  "SOURCE_ADDRESS": "151 BURROWS HALL BLVD",
  "SCHOOL_TYPE_DESC": "English Public",
  "ADDRESS_POINT_ID": 314663,
  "LINEAR_NAME_FULL": "Burrows Hall Blvd",
  "ADDRESS_FULL": "151 Burrows Hall Blvd",
  "POSTAL_CODE": "M1B 1M5",
  "MUNICIPALITY": "Scarborough",
  "CITY": "Toronto",
  "GENERAL_USE_CODE": 102001,
  "LONG": -79.2288180080604,
  "LAT": 43.792697960518
},
{
  "_id": 184,
  "OBJECTID": 184,
  "GEO_ID": 14078198,
  "NAME": "CATHEDRAL CHRISTIAN ACADEMY",
  "SOURCE_ADDRESS": "1111 ARROW RD",
  "SCHOOL_TYPE_DESC": "Private",
  "ADDRESS_POINT_ID": 14078198,
  "LINEAR_NAME_FULL": "Arrow Rd",
  "ADDRESS_FULL": "1111 Arrow Rd",
  "POSTAL_CODE": "M9M 3B3",
  "MUNICIPALITY": "North York",
  "CITY": "Toronto",
  "GENERAL_USE_CODE": 115001,
  "LONG": -79.5344853865386,
  "LAT": 43.7523875173115
},
{
  "_id": 185,
  "OBJECTID": 185,
  "GEO_ID": 337054,
  "NAME": "CEDAR DRIVE JUNIOR PUBLIC SCHOOL",
  "SOURCE_ADDRESS": "21 GATESVIEW AVE",
  "SCHOOL_TYPE_DESC": "English Public",
  "ADDRESS_POINT_ID": 337054,
  "LINEAR_NAME_FULL": "Gatesview Ave",
  "ADDRESS_FULL": "21 Gatesview Ave",
  "POSTAL_CODE": "M1J 3G4",
  "MUNICIPALITY": "Scarborough",
  "CITY": "Toronto",
  "GENERAL_USE_CODE": 102001,
  "LONG": -79.215050939271,
  "LAT": 43.7458528095017
},
{
  "_id": 166,
  "OBJECTID": 166,
  "GEO_ID": 10071193,
  "NAME": "C W JEFFERYS COLLEGIATE INSTITUTE",
  "SOURCE_ADDRESS": "340 SENTINEL RD",
  "SCHOOL_TYPE_DESC": "English Public",
  "ADDRESS_POINT_ID": 10071193,
  "LINEAR_NAME_FULL": "Sentinel Rd",
  "ADDRESS_FULL": "340 Sentinel Rd",
  "POSTAL_CODE": "M3J 1T9",
  "MUNICIPALITY": "North York",
  "CITY": "Toronto",
  "GENERAL_USE_CODE": 102002,
  "LONG": -79.4999125095246,
  "LAT": 43.7582792583815
},
{
  "_id": 165,
  "OBJECTID": 165,
  "GEO_ID": 8837557,
  "NAME": "C R MARCHANT MIDDLE SCHOOL",
  "SOURCE_ADDRESS": "1 RALPH ST",
  "SCHOOL_TYPE_DESC": "English Public",
  "ADDRESS_POINT_ID": 8837557,
  "LINEAR_NAME_FULL": "Ralph St",
  "ADDRESS_FULL": "1 Ralph St",
  "POSTAL_CODE": "M9N 3A8",
  "MUNICIPALITY": "York",
  "CITY": "Toronto",
  "GENERAL_USE_CODE": 102001,
  "LONG": -79.5129333966558,
  "LAT": 43.7017214781638
},
{
  "_id": 167,
  "OBJECTID": 167,
  "GEO_ID": 495446,
  "NAME": "CALICO PUBLIC SCHOOL",
  "SOURCE_ADDRESS": "35 CALICO DR",
  "SCHOOL_TYPE_DESC": "English Public",
  "ADDRESS_POINT_ID": 495446,
  "LINEAR_NAME_FULL": "Calico Dr",
  "ADDRESS_FULL": "35 Calico Dr",
  "POSTAL_CODE": "M3L 1V5",
  "MUNICIPALITY": "North York",
  "CITY": "Toronto",
  "GENERAL_USE_CODE": 102001,
  "LONG": -79.5035920382592,
  "LAT": 43.7379061764681
},
{
  "_id": 164,
  "OBJECTID": 164,
  "GEO_ID": 312706,
  "NAME": "C D FARQUHARSON JUNIOR PUBLIC SCHOOL",
  "SOURCE_ADDRESS": "1965 BRIMLEY RD",
  "SCHOOL_TYPE_DESC": "English Public",
  "ADDRESS_POINT_ID": 312706,
  "LINEAR_NAME_FULL": "Brimley Rd",
  "ADDRESS_FULL": "1965 Brimley Rd",
  "POSTAL_CODE": "M1S 2B1",
  "MUNICIPALITY": "Scarborough",
  "CITY": "Toronto",
  "GENERAL_USE_CODE": 102001,
  "LONG": -79.2661055358191,
  "LAT": 43.784467159758
},
{
  "_id": 186,
  "OBJECTID": 186,
  "GEO_ID": 360056,
  "NAME": "CEDARBRAE COLLEGIATE INSTITUTE",
  "SOURCE_ADDRESS": "550 MARKHAM RD",
  "SCHOOL_TYPE_DESC": "English Public",
  "ADDRESS_POINT_ID": 360056,
  "LINEAR_NAME_FULL": "Markham Rd",
  "ADDRESS_FULL": "550 Markham Rd",
  "POSTAL_CODE": "M1H 2A2",
  "MUNICIPALITY": "Scarborough",
  "CITY": "Toronto",
  "GENERAL_USE_CODE": 102002,
  "LONG": -79.2259248559894,
  "LAT": 43.7563408988376
},
{
  "_id": 168,
  "OBJECTID": 168,
  "GEO_ID": 495911,
  "NAME": "CAMERON PUBLIC SCHOOL",
  "SOURCE_ADDRESS": "211 CAMERON AVE",
  "SCHOOL_TYPE_DESC": "English Public",
  "ADDRESS_POINT_ID": 495911,
  "LINEAR_NAME_FULL": "Cameron Ave",
  "ADDRESS_FULL": "211 Cameron Ave",
  "POSTAL_CODE": "M2N 1E8",
  "MUNICIPALITY": "North York",
  "CITY": "Toronto",
  "GENERAL_USE_CODE": 102001,
  "LONG": -79.421251554251,
  "LAT": 43.7543606984639
},
{
  "_id": 187,
  "OBJECTID": 187,
  "GEO_ID": 367221,
  "NAME": "CEDARBROOK JUNIOR PUBLIC SCHOOL",
  "SOURCE_ADDRESS": "56 NELSON ST",
  "SCHOOL_TYPE_DESC": "English Public",
  "ADDRESS_POINT_ID": 367221,
  "LINEAR_NAME_FULL": "Nelson St",
  "ADDRESS_FULL": "56 Nelson St",
  "POSTAL_CODE": "M1J 2V6",
  "MUNICIPALITY": "Scarborough",
  "CITY": "Toronto",
  "GENERAL_USE_CODE": 102001,
  "LONG": -79.2301927515264,
  "LAT": 43.7472933923281
},
{
  "_id": 188,
  "OBJECTID": 188,
  "GEO_ID": 51217,
  "NAME": "CEDARVALE COMMUNITY SCHOOL",
  "SOURCE_ADDRESS": "145 AVA RD",
  "SCHOOL_TYPE_DESC": "English Public",
  "ADDRESS_POINT_ID": 51217,
  "LINEAR_NAME_FULL": "Ava Rd",
  "ADDRESS_FULL": "145 Ava Rd",
  "POSTAL_CODE": "M6C 1W4",
  "MUNICIPALITY": "York",
  "CITY": "Toronto",
  "GENERAL_USE_CODE": 102001,
  "LONG": -79.4302837269918,
  "LAT": 43.696025486871
},
{
  "_id": 189,
  "OBJECTID": 189,
  "GEO_ID": 11048263,
  "NAME": "CENTENNIAL COLLEGE - ASHTONBEE CAMPUS",
  "SOURCE_ADDRESS": "75 ASHTONBEE RD",
  "SCHOOL_TYPE_DESC": "",
  "ADDRESS_POINT_ID": 11048263,
  "LINEAR_NAME_FULL": "Ashtonbee Rd",
  "ADDRESS_FULL": "75 Ashtonbee Rd",
  "POSTAL_CODE": "M1L 4N4",
  "MUNICIPALITY": "Scarborough",
  "CITY": "Toronto",
  "GENERAL_USE_CODE": 115001,
  "LONG": -79.2897867296388,
  "LAT": 43.7307013783081
},
{
  "_id": 190,
  "OBJECTID": 190,
  "GEO_ID": 6387861,
  "NAME": "CENTENNIAL COLLEGE - CARLAW CAMPUS",
  "SOURCE_ADDRESS": "951 CARLAW AVE",
  "SCHOOL_TYPE_DESC": "",
  "ADDRESS_POINT_ID": 6387861,
  "LINEAR_NAME_FULL": "Carlaw Ave",
  "ADDRESS_FULL": "951 Carlaw Ave",
  "POSTAL_CODE": "M4K 3M2",
  "MUNICIPALITY": "East York",
  "CITY": "Toronto",
  "GENERAL_USE_CODE": 115001,
  "LONG": -79.3488606053088,
  "LAT": 43.6846512620714
},
{
  "_id": 191,
  "OBJECTID": 191,
  "GEO_ID": 13494886,
  "NAME": "CENTENNIAL COLLEGE - DOWNSVIEW CAMPUS",
  "SOURCE_ADDRESS": "65 CARL HALL RD",
  "SCHOOL_TYPE_DESC": "",
  "ADDRESS_POINT_ID": 13494886,
  "LINEAR_NAME_FULL": "Carl Hall Rd",
  "ADDRESS_FULL": "65 Carl Hall Rd",
  "POSTAL_CODE": "M3K 2E1",
  "MUNICIPALITY": "North York",
  "CITY": "Toronto",
  "GENERAL_USE_CODE": 110001,
  "LONG": -79.4761936970209,
  "LAT": 43.7473823846262
},
{
  "_id": 192,
  "OBJECTID": 192,
  "GEO_ID": 5101257,
  "NAME": "CENTENNIAL COLLEGE - MIDLAND CAMPUS",
  "SOURCE_ADDRESS": "1450 MIDLAND AVE",
  "SCHOOL_TYPE_DESC": "",
  "ADDRESS_POINT_ID": 5101257,
  "LINEAR_NAME_FULL": "Midland Ave",
  "ADDRESS_FULL": "1450 Midland Ave",
  "POSTAL_CODE": "M1P 4Z8",
  "MUNICIPALITY": "Scarborough",
  "CITY": "Toronto",
  "GENERAL_USE_CODE": 112001,
  "LONG": -79.2656557452645,
  "LAT": 43.7522958988616
},
{
  "_id": 193,
  "OBJECTID": 193,
  "GEO_ID": 14198162,
  "NAME": "CENTENNIAL COLLEGE - MORNINGSIDE CAMPUS",
  "SOURCE_ADDRESS": "755 MORNINGSIDE AVE",
  "SCHOOL_TYPE_DESC": "",
  "ADDRESS_POINT_ID": 14198162,
  "LINEAR_NAME_FULL": "Morningside Ave",
  "ADDRESS_FULL": "755 Morningside Ave",
  "POSTAL_CODE": "M1C 5J9",
  "MUNICIPALITY": "Scarborough",
  "CITY": "Toronto",
  "GENERAL_USE_CODE": 102006,
  "LONG": -79.1929331612857,
  "LAT": 43.7860239310755
},
{
  "_id": 194,
  "OBJECTID": 194,
  "GEO_ID": 13503978,
  "NAME": "CENTENNIAL COLLEGE - PROGRESS CAMPUS",
  "SOURCE_ADDRESS": "941 PROGRESS AVE",
  "SCHOOL_TYPE_DESC": "",
  "ADDRESS_POINT_ID": 13503978,
  "LINEAR_NAME_FULL": "Progress Ave",
  "ADDRESS_FULL": "941 Progress Ave",
  "POSTAL_CODE": "M1G 3T8",
  "MUNICIPALITY": "Scarborough",
  "CITY": "Toronto",
  "GENERAL_USE_CODE": 102006,
  "LONG": -79.2270264219067,
  "LAT": 43.7852646605478
},
{
  "_id": 195,
  "OBJECTID": 195,
  "GEO_ID": 317905,
  "NAME": "CENTENNIAL ROAD JUNIOR PUBLIC SCHOOL",
  "SOURCE_ADDRESS": "271 CENTENNIAL RD",
  "SCHOOL_TYPE_DESC": "English Public",
  "ADDRESS_POINT_ID": 317905,
  "LINEAR_NAME_FULL": "Centennial Rd",
  "ADDRESS_FULL": "271 Centennial Rd",
  "POSTAL_CODE": "M1C 2A2",
  "MUNICIPALITY": "Scarborough",
  "CITY": "Toronto",
  "GENERAL_USE_CODE": 102001,
  "LONG": -79.1500238078626,
  "LAT": 43.7869622763272
},
{
  "_id": 199,
  "OBJECTID": 199,
  "GEO_ID": 6924847,
  "NAME": "CENTRAL TECHNICAL SCHOOL",
  "SOURCE_ADDRESS": "725 BATHURST ST",
  "SCHOOL_TYPE_DESC": "English Public",
  "ADDRESS_POINT_ID": 6924847,
  "LINEAR_NAME_FULL": "Bathurst St",
  "ADDRESS_FULL": "725 Bathurst St",
  "POSTAL_CODE": "M5S 2R5",
  "MUNICIPALITY": "former Toronto",
  "CITY": "Toronto",
  "GENERAL_USE_CODE": 102002,
  "LONG": -79.4085177947948,
  "LAT": 43.6628382420106
},
{
  "_id": 196,
  "OBJECTID": 196,
  "GEO_ID": 7196008,
  "NAME": "CENTERPOINT LINC",
  "SOURCE_ADDRESS": "6464 YONGE ST",
  "SCHOOL_TYPE_DESC": "English Public",
  "ADDRESS_POINT_ID": 7196008,
  "LINEAR_NAME_FULL": "Yonge St",
  "ADDRESS_FULL": "6464 Yonge St",
  "POSTAL_CODE": "M2M 3X4",
  "MUNICIPALITY": "North York",
  "CITY": "Toronto",
  "GENERAL_USE_CODE": 107004,
  "LONG": -79.422382771195,
  "LAT": 43.7958512114194
},
{
  "_id": 200,
  "OBJECTID": 200,
  "GEO_ID": 866713,
  "NAME": "CENTRAL TORONTO ACADEMY/CENTRAL COMMERCE COLLEGIATE INSTITUTE",
  "SOURCE_ADDRESS": "570 SHAW ST",
  "SCHOOL_TYPE_DESC": "English Public",
  "ADDRESS_POINT_ID": 866713,
  "LINEAR_NAME_FULL": "Shaw St",
  "ADDRESS_FULL": "570 Shaw St",
  "POSTAL_CODE": "M6G 3L6",
  "MUNICIPALITY": "former Toronto",
  "CITY": "Toronto",
  "GENERAL_USE_CODE": 102002,
  "LONG": -79.4219986112882,
  "LAT": 43.657978462827
},
{
  "_id": 202,
  "OBJECTID": 202,
  "GEO_ID": 10494536,
  "NAME": "CHALKFARM PUBLIC SCHOOL",
  "SOURCE_ADDRESS": "100 CHALKFARM DR",
  "SCHOOL_TYPE_DESC": "English Public",
  "ADDRESS_POINT_ID": 10494536,
  "LINEAR_NAME_FULL": "Chalkfarm Dr",
  "ADDRESS_FULL": "100 Chalkfarm Dr",
  "POSTAL_CODE": "M3L 1L4",
  "MUNICIPALITY": "North York",
  "CITY": "Toronto",
  "GENERAL_USE_CODE": 102001,
  "LONG": -79.5143927419889,
  "LAT": 43.7271064323401
},
{
  "_id": 197,
  "OBJECTID": 197,
  "GEO_ID": 996285,
  "NAME": "CENTRAL ETOBICOKE HIGH SCHOOL",
  "SOURCE_ADDRESS": "10 DENFIELD ST",
  "SCHOOL_TYPE_DESC": "English Public",
  "ADDRESS_POINT_ID": 996285,
  "LINEAR_NAME_FULL": "Denfield St",
  "ADDRESS_FULL": "10 Denfield St",
  "POSTAL_CODE": "M9R 3H1",
  "MUNICIPALITY": "Etobicoke",
  "CITY": "Toronto",
  "GENERAL_USE_CODE": 102002,
  "LONG": -79.5554889336889,
  "LAT": 43.6790185578849
},
{
  "_id": 201,
  "OBJECTID": 201,
  "GEO_ID": 9602785,
  "NAME": "CESTAR HIGH SCHOOL",
  "SOURCE_ADDRESS": "271 YORKLAND BLVD",
  "SCHOOL_TYPE_DESC": "Private",
  "ADDRESS_POINT_ID": 9602785,
  "LINEAR_NAME_FULL": "Yorkland Blvd",
  "ADDRESS_FULL": "271 Yorkland Blvd",
  "POSTAL_CODE": "M2J 1S5",
  "MUNICIPALITY": "North York",
  "CITY": "Toronto",
  "GENERAL_USE_CODE": 115001,
  "LONG": -79.3355275145792,
  "LAT": 43.7737288529858
},
{
  "_id": 198,
  "OBJECTID": 198,
  "GEO_ID": 575631,
  "NAME": "CENTRAL MONTESSORI - WILLOWDALE",
  "SOURCE_ADDRESS": "157 WILLOWDALE AVE",
  "SCHOOL_TYPE_DESC": "Private",
  "ADDRESS_POINT_ID": 575631,
  "LINEAR_NAME_FULL": "Willowdale Ave",
  "ADDRESS_FULL": "157 Willowdale Ave",
  "POSTAL_CODE": "M2N 4Y7",
  "MUNICIPALITY": "North York",
  "CITY": "Toronto",
  "GENERAL_USE_CODE": 112001,
  "LONG": -79.4004166171823,
  "LAT": 43.7666501469879
},
{
  "_id": 203,
  "OBJECTID": 203,
  "GEO_ID": 553615,
  "NAME": "CHAMINADE COLLEGE SCHOOL",
  "SOURCE_ADDRESS": "490 QUEEN'S DR",
  "SCHOOL_TYPE_DESC": "English Separate",
  "ADDRESS_POINT_ID": 553615,
  "LINEAR_NAME_FULL": "Queen's Dr",
  "ADDRESS_FULL": "490 Queen's Dr",
  "POSTAL_CODE": "M6L 1M8",
  "MUNICIPALITY": "North York",
  "CITY": "Toronto",
  "GENERAL_USE_CODE": 102004,
  "LONG": -79.4960594579928,
  "LAT": 43.7100909589739
},
{
  "_id": 204,
  "OBJECTID": 204,
  "GEO_ID": 9038626,
  "NAME": "CHARLES E WEBSTER JUNIOR PUBLIC SCHOOL",
  "SOURCE_ADDRESS": "1900 KEELE ST",
  "SCHOOL_TYPE_DESC": "English Public",
  "ADDRESS_POINT_ID": 9038626,
  "LINEAR_NAME_FULL": "Keele St",
  "ADDRESS_FULL": "1900 Keele St",
  "POSTAL_CODE": "M6M 3X7",
  "MUNICIPALITY": "York",
  "CITY": "Toronto",
  "GENERAL_USE_CODE": 102001,
  "LONG": -79.475099515903,
  "LAT": 43.6934344434159
},
{
  "_id": 205,
  "OBJECTID": 205,
  "GEO_ID": 837099,
  "NAME": "CHARLES G FRASER JUNIOR PUBLIC SCHOOL",
  "SOURCE_ADDRESS": "79 MANNING AVE",
  "SCHOOL_TYPE_DESC": "English Public",
  "ADDRESS_POINT_ID": 837099,
  "LINEAR_NAME_FULL": "Manning Ave",
  "ADDRESS_FULL": "79 Manning Ave",
  "POSTAL_CODE": "M6J 2K6",
  "MUNICIPALITY": "former Toronto",
  "CITY": "Toronto",
  "GENERAL_USE_CODE": 102001,
  "LONG": -79.4094836303214,
  "LAT": 43.6485300830641
},
{
  "_id": 206,
  "OBJECTID": 206,
  "GEO_ID": 6436438,
  "NAME": "CHARLES GORDON SENIOR PUBLIC SCHOOL",
  "SOURCE_ADDRESS": "25 MARCOS BLVD",
  "SCHOOL_TYPE_DESC": "English Public",
  "ADDRESS_POINT_ID": 6436438,
  "LINEAR_NAME_FULL": "Marcos Blvd",
  "ADDRESS_FULL": "25 Marcos Blvd",
  "POSTAL_CODE": "M1K 5A7",
  "MUNICIPALITY": "Scarborough",
  "CITY": "Toronto",
  "GENERAL_USE_CODE": 102001,
  "LONG": -79.2605263117434,
  "LAT": 43.7462850480666
},
{
  "_id": 207,
  "OBJECTID": 207,
  "GEO_ID": 575920,
  "NAME": "CHARLES H BEST MIDDLE SCHOOL",
  "SOURCE_ADDRESS": "285 WILMINGTON AVE",
  "SCHOOL_TYPE_DESC": "English Public",
  "ADDRESS_POINT_ID": 575920,
  "LINEAR_NAME_FULL": "Wilmington Ave",
  "ADDRESS_FULL": "285 Wilmington Ave",
  "POSTAL_CODE": "M3H 5K8",
  "MUNICIPALITY": "North York",
  "CITY": "Toronto",
  "GENERAL_USE_CODE": 102001,
  "LONG": -79.4586302368016,
  "LAT": 43.7674452465892
},
{
  "_id": 208,
  "OBJECTID": 208,
  "GEO_ID": 318714,
  "NAME": "CHARLOTTETOWN JUNIOR PUBLIC SCHOOL",
  "SOURCE_ADDRESS": "85 CHARLOTTETOWN BLVD",
  "SCHOOL_TYPE_DESC": "English Public",
  "ADDRESS_POINT_ID": 318714,
  "LINEAR_NAME_FULL": "Charlottetown Blvd",
  "ADDRESS_FULL": "85 Charlottetown Blvd",
  "POSTAL_CODE": "M1C 2C7",
  "MUNICIPALITY": "Scarborough",
  "CITY": "Toronto",
  "GENERAL_USE_CODE": 102001,
  "LONG": -79.1422089559982,
  "LAT": 43.7820702346732
},
{
  "_id": 209,
  "OBJECTID": 209,
  "GEO_ID": 6332543,
  "NAME": "CHARTLAND JUNIOR PUBLIC SCHOOL",
  "SOURCE_ADDRESS": "109 CHARTLAND BLVD S",
  "SCHOOL_TYPE_DESC": "English Public",
  "ADDRESS_POINT_ID": 6332543,
  "LINEAR_NAME_FULL": "Chartland Blvd S",
  "ADDRESS_FULL": "109 Chartland Blvd S",
  "POSTAL_CODE": "M1S 2R7",
  "MUNICIPALITY": "Scarborough",
  "CITY": "Toronto",
  "GENERAL_USE_CODE": 102001,
  "LONG": -79.2785043435939,
  "LAT": 43.799988726269
},
{
  "_id": 210,
  "OBJECTID": 210,
  "GEO_ID": 498606,
  "NAME": "CHEROKEE PUBLIC SCHOOL",
  "SOURCE_ADDRESS": "390 CHEROKEE BLVD",
  "SCHOOL_TYPE_DESC": "English Public",
  "ADDRESS_POINT_ID": 498606,
  "LINEAR_NAME_FULL": "Cherokee Blvd",
  "ADDRESS_FULL": "390 Cherokee Blvd",
  "POSTAL_CODE": "M2H 2W7",
  "MUNICIPALITY": "North York",
  "CITY": "Toronto",
  "GENERAL_USE_CODE": 102001,
  "LONG": -79.338614744436,
  "LAT": 43.7987627465793
},
{
  "_id": 211,
  "OBJECTID": 211,
  "GEO_ID": 3232917,
  "NAME": "CHESTER ELEMENTARY SCHOOL",
  "SOURCE_ADDRESS": "115 GOWAN AVE",
  "SCHOOL_TYPE_DESC": "English Public",
  "ADDRESS_POINT_ID": 3232917,
  "LINEAR_NAME_FULL": "Gowan Ave",
  "ADDRESS_FULL": "115 Gowan Ave",
  "POSTAL_CODE": "M4K 2E4",
  "MUNICIPALITY": "East York",
  "CITY": "Toronto",
  "GENERAL_USE_CODE": 102001,
  "LONG": -79.3517099846563,
  "LAT": 43.6876023807709
},
{
  "_id": 212,
  "OBJECTID": 212,
  "GEO_ID": 6242276,
  "NAME": "CHESTER LE JUNIOR PUBLIC SCHOOL",
  "SOURCE_ADDRESS": "201 CHESTER LE BLVD",
  "SCHOOL_TYPE_DESC": "English Public",
  "ADDRESS_POINT_ID": 6242276,
  "LINEAR_NAME_FULL": "Chester Le Blvd",
  "ADDRESS_FULL": "201 Chester Le Blvd",
  "POSTAL_CODE": "M1W 2K7",
  "MUNICIPALITY": "Scarborough",
  "CITY": "Toronto",
  "GENERAL_USE_CODE": 102001,
  "LONG": -79.3310953374039,
  "LAT": 43.7985877098575
},
{
  "_id": 214,
  "OBJECTID": 214,
  "GEO_ID": 11915536,
  "NAME": "CHILDREN'S GARDEN JUNIOR SCHOOL",
  "SOURCE_ADDRESS": "670 EGLINTON AVE E",
  "SCHOOL_TYPE_DESC": "Private",
  "ADDRESS_POINT_ID": 11915536,
  "LINEAR_NAME_FULL": "Eglinton Ave E",
  "ADDRESS_FULL": "670 Eglinton Ave E",
  "POSTAL_CODE": "M4G 2K4",
  "MUNICIPALITY": "East York",
  "CITY": "Toronto",
  "GENERAL_USE_CODE": 109001,
  "LONG": -79.3726675424564,
  "LAT": 43.7123432679621
},
{
  "_id": 216,
  "OBJECTID": 216,
  "GEO_ID": 762114,
  "NAME": "CHURCH STREET JUNIOR PUBLIC SCHOOL",
  "SOURCE_ADDRESS": "83 ALEXANDER ST",
  "SCHOOL_TYPE_DESC": "English Public",
  "ADDRESS_POINT_ID": 762114,
  "LINEAR_NAME_FULL": "Alexander St",
  "ADDRESS_FULL": "83 Alexander St",
  "POSTAL_CODE": "M4Y 1B7",
  "MUNICIPALITY": "former Toronto",
  "CITY": "Toronto",
  "GENERAL_USE_CODE": 102001,
  "LONG": -79.3791781653545,
  "LAT": 43.6636084257427
},
{
  "_id": 218,
  "OBJECTID": 218,
  "GEO_ID": 499519,
  "NAME": "CHURCHILL PUBLIC SCHOOL",
  "SOURCE_ADDRESS": "188 CHURCHILL AVE",
  "SCHOOL_TYPE_DESC": "English Public",
  "ADDRESS_POINT_ID": 499519,
  "LINEAR_NAME_FULL": "Churchill Ave",
  "ADDRESS_FULL": "188 Churchill Ave",
  "POSTAL_CODE": "M2N 1Z5",
  "MUNICIPALITY": "North York",
  "CITY": "Toronto",
  "GENERAL_USE_CODE": 102001,
  "LONG": -79.4270361642829,
  "LAT": 43.7707536046539
},
{
  "_id": 219,
  "OBJECTID": 219,
  "GEO_ID": 7274519,
  "NAME": "CITY ACADEMY",
  "SOURCE_ADDRESS": "1910 YONGE ST",
  "SCHOOL_TYPE_DESC": "Private",
  "ADDRESS_POINT_ID": 7274519,
  "LINEAR_NAME_FULL": "Yonge St",
  "ADDRESS_FULL": "1910 Yonge St",
  "POSTAL_CODE": "M4S 3B2",
  "MUNICIPALITY": "former Toronto",
  "CITY": "Toronto",
  "GENERAL_USE_CODE": 104008,
  "LONG": -79.3969906206407,
  "LAT": 43.6984571170718
},
{
  "_id": 213,
  "OBJECTID": 213,
  "GEO_ID": 337172,
  "NAME": "CHIEF DAN GEORGE PUBLIC SCHOOL",
  "SOURCE_ADDRESS": "185 GENERATION BLVD",
  "SCHOOL_TYPE_DESC": "English Public",
  "ADDRESS_POINT_ID": 337172,
  "LINEAR_NAME_FULL": "Generation Blvd",
  "ADDRESS_FULL": "185 Generation Blvd",
  "POSTAL_CODE": "M1B 2K5",
  "MUNICIPALITY": "Scarborough",
  "CITY": "Toronto",
  "GENERAL_USE_CODE": 102001,
  "LONG": -79.1638346582217,
  "LAT": 43.8027223090495
},
{
  "_id": 215,
  "OBJECTID": 215,
  "GEO_ID": 2904931,
  "NAME": "CHINE DRIVE PUBLIC SCHOOL",
  "SOURCE_ADDRESS": "51 CHINE DR",
  "SCHOOL_TYPE_DESC": "English Public",
  "ADDRESS_POINT_ID": 2904931,
  "LINEAR_NAME_FULL": "Chine Dr",
  "ADDRESS_FULL": "51 Chine Dr",
  "POSTAL_CODE": "M1M 2K8",
  "MUNICIPALITY": "Scarborough",
  "CITY": "Toronto",
  "GENERAL_USE_CODE": 102001,
  "LONG": -79.2417968940952,
  "LAT": 43.7099825934536
},
{
  "_id": 217,
  "OBJECTID": 217,
  "GEO_ID": 313046,
  "NAME": "CHURCHILL HEIGHTS PUBLIC SCHOOL",
  "SOURCE_ADDRESS": "749 BRIMORTON DR",
  "SCHOOL_TYPE_DESC": "English Public",
  "ADDRESS_POINT_ID": 313046,
  "LINEAR_NAME_FULL": "Brimorton Dr",
  "ADDRESS_FULL": "749 Brimorton Dr",
  "POSTAL_CODE": "M1G 2S4",
  "MUNICIPALITY": "Scarborough",
  "CITY": "Toronto",
  "GENERAL_USE_CODE": 102001,
  "LONG": -79.2243167892305,
  "LAT": 43.7731919492023
},
{
  "_id": 221,
  "OBJECTID": 221,
  "GEO_ID": 20056424,
  "NAME": "CITY SCHOOL",
  "SOURCE_ADDRESS": "635 QUEENS QUAY W",
  "SCHOOL_TYPE_DESC": "English Public",
  "ADDRESS_POINT_ID": 20056424,
  "LINEAR_NAME_FULL": "Queens Quay W",
  "ADDRESS_FULL": "635 Queens Quay W",
  "POSTAL_CODE": "M5V 3G3",
  "MUNICIPALITY": "former Toronto",
  "CITY": "Toronto",
  "GENERAL_USE_CODE": 102001,
  "LONG": -79.3971875912132,
  "LAT": 43.6357488157646
},
{
  "_id": 222,
  "OBJECTID": 222,
  "GEO_ID": 10759447,
  "NAME": "CITY VIEW ALTERNATIVE SENIOR SCHOOL",
  "SOURCE_ADDRESS": "38 SHIRLEY ST",
  "SCHOOL_TYPE_DESC": "English Public",
  "ADDRESS_POINT_ID": 10759447,
  "LINEAR_NAME_FULL": "Shirley St",
  "ADDRESS_FULL": "38 Shirley St",
  "POSTAL_CODE": "M6K 1S9",
  "MUNICIPALITY": "former Toronto",
  "CITY": "Toronto",
  "GENERAL_USE_CODE": 102001,
  "LONG": -79.4367221725004,
  "LAT": 43.6485242370315
},